bus_stop_name,municipality,operator_1,operator_2,operator_3,route_type_1,route_type_2,route_type_3,note,longitude,latitude,prefecture
中央診療所,三宅村,三宅村営バス,,,2,,,,139.5307106009487,34.12225214296451,東京都
湯舟グラウンド前,三宅村,三宅村営バス,,,2,,,,139.5303995503607,34.12144055676485,東京都
焼場,三宅村,三宅村営バス,,,2,,,,139.52688875404098,34.12135795317393,東京都
神着,三宅村,三宅村営バス,,,2,,,,139.52251418210324,34.120367086284645,東京都
土佐,三宅村,三宅村営バス,,,2,,,,139.53524055456495,34.12027389501977,東京都
門の原,三宅村,三宅村営バス,,,2,,,,139.5212862537813,34.119950428591544,東京都
警察署前,三宅村,三宅村営バス,,,2,,,,139.5181779290849,34.1197911975273,東京都
三宅小中学校前,三宅村,三宅村営バス,,,2,,,,139.5051907706161,34.119749211227976,東京都
大久保浜,三宅村,三宅村営バス,,,2,,,,139.51002616604157,34.119671827725824,東京都
支庁前,三宅村,三宅村営バス,,,2,,,,139.51661810557655,34.11900290828634,東京都
姉川神社前,三宅村,三宅村営バス,,,2,,,,139.50756060143308,34.11869131750706,東京都
ナダード,三宅村,三宅村営バス,,,2,,,,139.54186836661694,34.118276239962874,東京都
保健所前,三宅村,三宅村営バス,,,2,,,,139.50389096226954,34.11812574494122,東京都
みやけ保育園前,三宅村,三宅村営バス,,,2,,,,139.50906271986312,34.1179508700134,東京都
友地,三宅村,三宅村営バス,,,2,,,,139.513248739749,34.117817109449476,東京都
三ノ輪,三宅村,三宅村営バス,,,2,,,,139.54611301337496,34.11731201564898,東京都
阿知原,三宅村,三宅村営バス,,,2,,,,139.50189122540857,34.116320342940256,東京都
美茂井,三宅村,三宅村営バス,,,2,,,,139.54997134762294,34.115464253281715,東京都
伊豆,三宅村,三宅村営バス,,,2,,,,139.50022089199697,34.114746037677264,東京都
薬師前,三宅村,三宅村営バス,,,2,,,,139.49947132245939,34.112838732871346,東京都
釜の尻,三宅村,三宅村営バス,,,2,,,,139.55445410965098,34.11234136538415,東京都
伊豆岬入口,三宅村,三宅村営バス,,,2,,,,139.49533433486633,34.10957070216684,東京都
椎取神社前,三宅村,三宅村営バス,,,2,,,,139.55823251813015,34.108138289297216,東京都
西原,三宅村,三宅村営バス,,,2,,,,139.49549301943676,34.10750650156949,東京都
赤場暁,三宅村,三宅村営バス,,,2,,,,139.55954874526836,34.10109882374538,東京都
伊ヶ谷,三宅村,三宅村営バス,,,2,,,,139.49243777110325,34.10025784108337,東京都
伊ヶ谷港,三宅村,三宅村営バス,,,2,,,,139.48869896449702,34.099581191508896,東京都
岡庭,三宅村,三宅村営バス,,,2,,,,139.49230145863825,34.098804116785466,東京都
三七山,三宅村,三宅村営バス,,,2,,,,139.55869393936837,34.097604500463646,東京都
御子敷,三宅村,三宅村営バス,,,2,,,,139.5604542119925,34.092250209825075,東京都
三池園地,三宅村,三宅村営バス,,,2,,,,139.5608015795086,34.086170137575024,東京都
三池,三宅村,三宅村営バス,,,2,,,,139.56002287277778,34.0836315083655,東京都
夕景浜,三宅村,三宅村営バス,,,2,,,,139.48251924929068,34.08250912613551,東京都
沖ヶ平,三宅村,三宅村営バス,,,2,,,,139.55933728161247,34.079707752415004,東京都
三池港,三宅村,三宅村営バス,,,2,,,,139.56313697503518,34.07940926767955,東京都
鉄砲場,三宅村,三宅村営バス,,,2,,,,139.48449668652887,34.078954303535795,東京都
企業課前,三宅村,三宅村営バス,,,2,,,,139.5575748062395,34.0770290915232,東京都
阿古,三宅村,三宅村営バス,,,2,,,,139.48081819820516,34.07581373507102,東京都
二島,三宅村,三宅村営バス,,,2,,,,139.47972308844174,34.07325038635654,東京都
空港前,三宅村,三宅村営バス,,,2,,,,139.5581710574295,34.07264182757325,東京都
錆ヶ浜,三宅村,三宅村営バス,,,2,,,,139.48107554814942,34.07082486077217,東京都
錆ヶ浜港,三宅村,三宅村営バス,,,2,,,,139.48103089602986,34.068482902379735,東京都
錆ヶ浜港入口,三宅村,三宅村営バス,,,2,,,,139.4824280127852,34.06806631779088,東京都
釜方,三宅村,三宅村営バス,,,2,,,,139.5562053998516,34.06682770119121,東京都
阿古郵便局前,三宅村,三宅村営バス,,,2,,,,139.48315304590517,34.064622559445105,東京都
御嶽神社前,三宅村,三宅村営バス,,,2,,,,139.55285945432118,34.06402598151266,東京都
大永井,三宅村,三宅村営バス,,,2,,,,139.55019861019053,34.06366566802526,東京都
釜根,三宅村,三宅村営バス,,,2,,,,139.48404161991465,34.0632246847301,東京都
旧坪田小学校前,三宅村,三宅村営バス,,,2,,,,139.54722899997512,34.06113394300347,東京都
坪田,三宅村,三宅村営バス,,,2,,,,139.54529810932414,34.060263718779446,東京都
富賀神社前,三宅村,三宅村営バス,,,2,,,,139.48658680307784,34.05878970044357,東京都
郷野,三宅村,三宅村営バス,,,2,,,,139.54204850350422,34.05838358319537,東京都
高校前,三宅村,三宅村営バス,,,2,,,,139.5383900015159,34.05759636507227,東京都
農林合同庁舎前,三宅村,三宅村営バス,,,2,,,,139.53477678581805,34.05660639521084,東京都
薄木,三宅村,三宅村営バス,,,2,,,,139.48925777394808,34.05576178692534,東京都
粟辺坂上,三宅村,三宅村営バス,,,2,,,,139.49247421525942,34.05430898654995,東京都
粟辺,三宅村,三宅村営バス,,,2,,,,139.4960300938036,34.052439298013454,東京都
大路池,三宅村,三宅村営バス,,,2,,,,139.528663610168,34.05176347502265,東京都
東山,三宅村,三宅村営バス,,,2,,,,139.52315271952662,34.0501812987209,東京都
角屋敷,三宅村,三宅村営バス,,,2,,,,139.51137035729525,34.04946750027825,東京都
新澪池,三宅村,三宅村営バス,,,2,,,,139.50342324466237,34.04862990910133,東京都
野田浜,大島旅客自動車（株）,ぶらっと・野田浜ライン,,,1,,,,139.36057706479417,34.795124083873105,東京都
岡田港,大島旅客自動車（株）,"三原山ライン,大島公園ライン,ぶらっと・野田浜ライン",,,"1,1,1",,,,139.39195857177597,34.78945868221155,東京都
ぶらっとハウス,大島旅客自動車（株）,ぶらっと・野田浜ライン,,,1,,,,139.36554157374064,34.78857820156531,東京都
塚の本,大島旅客自動車（株）,大島公園ライン,,,1,,,,139.39314099734514,34.787995227069445,東京都
空港北口,大島旅客自動車（株）,ぶらっと・野田浜ライン,,,1,,,,139.36488282176418,34.786606941221486,東京都
岡田出張所前,大島旅客自動車（株）,大島公園ライン,,,1,,,,139.39137626513755,34.78507495307086,東京都
秋の浜入口,大島旅客自動車（株）,大島公園ライン,,,1,,,,139.41129855867462,34.78413535631313,東京都
さくら小学校入口,大島旅客自動車（株）,大島公園ライン,,,1,,,,139.38575606170917,34.78290350605297,東京都
岡田郵便局前,大島旅客自動車（株）,大島公園ライン,,,1,,,,139.387709480368,34.78281075644734,東京都
大島空港ターミナル,大島旅客自動車（株）,大島公園ライン,,,1,,,,139.36392074253862,34.78269038150531,東京都
泉津,大島旅客自動車（株）,大島公園ライン,,,1,,,,139.41449223978591,34.782505594106254,東京都
桜通り,大島旅客自動車（株）,大島公園ライン,,,1,,,,139.38234614127066,34.78241272163335,東京都
北の山,大島旅客自動車（株）,大島公園ライン,,,1,,,,139.37189390444223,34.78042202443492,東京都
ふるさと体験館入口,大島旅客自動車（株）,大島公園ライン,,,1,,,,139.36963273739983,34.77998698891793,東京都
大島空港入口,大島旅客自動車（株）,大島公園ライン,,,1,,,,139.3652020568988,34.77884806630185,東京都
椿トンネル,大島旅客自動車（株）,大島公園ライン,,,1,,,,139.4232677734491,34.77849792209548,東京都
地の岡,大島旅客自動車（株）,大島公園ライン,,,1,,,,139.36352948255987,34.77555948099275,東京都
郷土資料館入口,大島旅客自動車（株）,大島公園ライン,,,1,,,,139.3620868980657,34.771413499571146,東京都
椿・花ガーデン,大島旅客自動車（株）,三原山ライン,,,1,,,,139.3745299540647,34.77045119074705,東京都
大島高校前,大島旅客自動車（株）,大島公園ライン,,,1,,,,139.36034211682838,34.7642481414338,東京都
めがね橋,大島旅客自動車（株）,レインボーライン,,,1,,,,139.4233033898174,34.76348881656174,東京都
桜株,大島旅客自動車（株）,レインボーライン,,,1,,,,139.42921300302535,34.763200925448544,東京都
椿の森公園,大島旅客自動車（株）,三原山ライン,,,1,,,,139.3805345812961,34.76229418051281,東京都
大島公園,大島旅客自動車（株）,"大島公園ライン,レインボーライン,大砂漠ライン",,,"1,1,1",,,,139.43359227189578,34.7618514467184,東京都
あじさいロード中央,大島旅客自動車（株）,レインボーライン,,,1,,,,139.41251321652888,34.76052989738604,東京都
湯場三叉路,大島旅客自動車（株）,"三原山ライン,レインボーライン",,,"1,1",,,,139.39629943621185,34.758049900137294,東京都
支庁前,大島旅客自動車（株）,大島公園ライン,,,1,,,,139.35808545741304,34.75739828196402,東京都
三原山温泉,大島旅客自動車（株）,"三原山ライン,レインボーライン",,,"1,1",,,,139.40207421067504,34.75382377925185,東京都
元町北口,大島旅客自動車（株）,"大島公園ライン,波浮港ライン",,,"1,1",,,,139.35613405587765,34.75217574325523,東京都
元町港,大島旅客自動車（株）,"三原山ライン,大島公園ライン,波浮港ライン,ぶらっと・野田浜ライン",,,"1,1,1,1",,,,139.35307840545772,34.75175845859088,東京都
町役場前,大島旅客自動車（株）,大島公園ライン,,,1,,,,139.35600944667354,34.75035067628514,東京都
農協前,大島旅客自動車（株）,波浮港ライン,,,1,,,,139.35603059708723,34.749657981007054,東京都
元町南口,大島旅客自動車（株）,波浮港ライン,,,1,,,,139.35688432990457,34.74669447082783,東京都
新火口展望台,大島旅客自動車（株）,"三原山ライン,レインボーライン",,,"1,1",,,,139.39159047655366,34.74628854948056,東京都
火山博物館前,大島旅客自動車（株）,波浮港ライン,,,1,,,,139.35866856602672,34.74379653547283,東京都
大昇団地前,大島旅客自動車（株）,波浮港ライン,,,1,,,,139.3580907198837,34.74133930281231,東京都
三原山頂口,大島旅客自動車（株）,"三原山ライン,レインボーライン",,,"1,1",,,,139.37997460724722,34.738056978514564,東京都
大宮神社前,大島旅客自動車（株）,波浮港ライン,,,1,,,,139.35657877952528,34.7337962719924,東京都
野増,大島旅客自動車（株）,波浮港ライン,,,1,,,,139.3543618345365,34.731214307732905,東京都
大島大砂漠,大島旅客自動車（株）,大砂漠ライン,,,1,,,,139.43434617672466,34.729592656941044,東京都
清掃工場前,大島旅客自動車（株）,波浮港ライン,,,1,,,,139.35472510155208,34.72163994846239,東京都
千波,大島旅客自動車（株）,波浮港ライン,,,1,,,,139.36640858570374,34.70593991783323,東京都
地層断面前,大島旅客自動車（株）,波浮港ライン,,,1,,,,139.3718296481134,34.703180626800155,東京都
筆島,大島旅客自動車（株）,大砂漠ライン,,,1,,,,139.44347871739959,34.701787710167686,東京都
砂の浜入口,大島旅客自動車（株）,波浮港ライン,,,1,,,,139.38412358840608,34.69748732625425,東京都
間伏,大島旅客自動車（株）,波浮港ライン,,,1,,,,139.38781585865684,34.69471044526071,東京都
大島町陸上競技場,大島旅客自動車（株）,"波浮港ライン,大砂漠ライン",,,"1,1",,,,139.4449131693021,34.693646414007205,東京都
波浮保育園前,大島旅客自動車（株）,波浮港ライン,,,1,,,,139.43695998272742,34.69003275658722,東京都
上の山,大島旅客自動車（株）,"波浮港ライン,大砂漠ライン",,,"1,1",,,,139.43952751791818,34.68971145814637,東京都
送信所前,大島旅客自動車（株）,波浮港ライン,,,1,,,,139.3953618418386,34.68763737711938,東京都
波浮港,大島旅客自動車（株）,波浮港ライン,,,1,,,,139.43972121011154,34.68762613819623,東京都
波浮見晴台,大島旅客自動車（株）,"波浮港ライン,大砂漠ライン",,,"1,1",,,,139.4356302423221,34.68734052702643,東京都
三中前,大島旅客自動車（株）,波浮港ライン,,,1,,,,139.43499174870055,34.686171475374266,東京都
波浮西岸,大島旅客自動車（株）,波浮港ライン,,,1,,,,139.43761933486607,34.68468474978051,東京都
差木地保育園前,大島旅客自動車（株）,波浮港ライン,,,1,,,,139.4070420016402,34.68432227784829,東京都
差木地入口,大島旅客自動車（株）,波浮港ライン,,,1,,,,139.41215545070537,34.68330409469262,東京都
差木地南口,大島旅客自動車（株）,波浮港ライン,,,1,,,,139.42083075820395,34.68294030533833,東京都
海洋国際高校前,大島旅客自動車（株）,波浮港ライン,,,1,,,,139.43114366211316,34.68281013159149,東京都
差木地中央,大島旅客自動車（株）,波浮港ライン,,,1,,,,139.41674616903796,34.68223924382161,東京都
下地,大島旅客自動車（株）,波浮港ライン,,,1,,,,139.43573187567824,34.6817955791484,東京都
ぱれ・らめーる前,大島旅客自動車（株）,波浮港ライン,,,1,,,,139.43673289832935,34.68159145703664,東京都
鍾乳洞,西東京バス（株）,奥20,,,1,,,,139.03753178663092,35.848143714058416,東京都
清東橋,西東京バス（株）,"奥31,川31,川33",,,"1,1,1",,,,139.15386035284834,35.84376197713476,東京都
一原,西東京バス（株）,"奥20,奥21",,,"1,1",,,,139.04823266437336,35.84210001515859,東京都
岩松尾根,西東京バス（株）,"奥20,奥21",,,"1,1",,,,139.0630284731959,35.84201501156288,東京都
東日原,西東京バス（株）,"奥20,奥21",,,"1,1",,,,139.0446334543467,35.84174609202428,東京都
小山,西東京バス（株）,"奥31,川31,川33",,,"1,1,1",,,,139.15654205759776,35.84149753933,東京都
中日原,西東京バス（株）,奥20,,,1,,,,139.04108984813553,35.84110582804848,東京都
倉沢,西東京バス（株）,"奥20,奥21",,,"1,1",,,,139.06594815343743,35.840524154444665,東京都
小中茶屋,西東京バス（株）,"奥31,川31,川33",,,"1,1,1",,,,139.15826856710387,35.84042779421002,東京都
高土戸,東京都,梅76甲,,,2,,,,139.21525188188104,35.83969660680968,東京都
桜平,西東京バス（株）,"奥20,奥21",,,"1,1",,,,139.07011521461666,35.83881761886796,東京都
神庭沢,西東京バス（株）,"奥20,奥21",,,"1,1",,,,139.07332490178948,35.83817115358443,東京都
成木一丁目四ツ角,東京都,"梅74乙,梅74甲",,,"2,2",,,,139.28102850857107,35.83773502968762,東京都
成木一丁目四ツ角,国際興業（株）,"学02/03,南高麗01,南高麗03",,,"1,1,1",,,,139.28102850857107,35.83773502968762,東京都
成木一丁目自治会館前,東京都,"梅74乙,梅74甲",,,"2,2",,,,139.2785512923453,35.837568064885794,東京都
小ヶ井橋,東京都,梅76甲,,,2,,,,139.21739943968817,35.836864897764805,東京都
上成木,東京都,梅76甲,,,2,,,,139.20349222525402,35.83675280035327,東京都
上日向,西東京バス（株）,"奥30,奥31,川31,川30,川33,川32",,,"1,1,1,1,1,1",,,,139.16182661647068,35.83643568278308,東京都
大指,東京都,梅76甲,,,2,,,,139.20922417657587,35.83577540207844,東京都
中里橋,東京都,"梅74乙,梅74甲",,,"2,2",,,,139.27434708910204,35.835557947535136,東京都
富岡一丁目,東京都,"梅74乙,梅74甲",,,"2,2",,,,139.29713186188522,35.833988813662046,東京都
成木二丁目自治会館前,東京都,"梅74乙,梅74甲",,,"2,2",,,,139.27155607096591,35.83331454334854,東京都
梅ヶ平,東京都,梅76甲,,,2,,,,139.2245137560067,35.83311696026141,東京都
北上橋,西東京バス（株）,"奥30,奥31,川31,川30,川33,川32",,,"1,1,1,1,1,1",,,,139.16275966471113,35.83302541115201,東京都
岩井堂,西武バス（株）,"飯42,飯41-1,飯41",,,"1,1,1",,,,139.2968794344628,35.83249482327635,東京都
岩井堂,東京都,"梅74乙,梅74甲",,,"2,2",,,,139.2968794344628,35.83249482327635,東京都
日向,西東京バス（株）,"奥30,奥31,川31,川30,川33,川32",,,"1,1,1,1,1,1",,,,139.1637579428237,35.831977431988,東京都
坂久橋,東京都,"梅74乙,梅74甲",,,"2,2",,,,139.26863784528805,35.83177799505194,東京都
川乗橋,西東京バス（株）,"奥20,奥21",,,"1,1",,,,139.07624374964539,35.831768236431365,東京都
滝成,東京都,梅76甲,,,2,,,,139.23033463091335,35.83175804807055,東京都
八桑,西東京バス（株）,"奥30,奥31,川31,川30,川33,川32",,,"1,1,1,1,1,1",,,,139.16517175379434,35.83037588638576,東京都
久道,東京都,梅76甲,,,2,,,,139.23768033939504,35.83001588438287,東京都
成木三丁目,東京都,"梅74乙,梅74甲",,,"2,2",,,,139.26370431839985,35.829655648047556,東京都
白妙橋,西東京バス（株）,"奥20,奥21",,,"1,1",,,,139.07562964510265,35.82960941150201,東京都
中央橋,西武バス（株）,"飯41-1,飯41",,,"1,1",,,,139.29366403772906,35.829350696192826,東京都
中央橋,東京都,"梅74乙,梅74甲",,,"2,2",,,,139.29366403772906,35.829350696192826,東京都
北川橋,西東京バス（株）,"奥30,奥31,川31,川30,川33,川32",,,"1,1,1,1,1,1",,,,139.1653706517196,35.828910182217015,東京都
常福寺入口,西武バス（株）,"飯41-1,飯41",,,"1,1",,,,139.2918467584289,35.828309672180914,東京都
常福寺入口,東京都,"梅74乙,梅74甲",,,"2,2",,,,139.2918467584289,35.828309672180914,東京都
成木小学校前,東京都,"梅74乙,梅74甲",,,"2,2",,,,139.26068888270285,35.82812493943386,東京都
成木五丁目自治会館前,東京都,梅76甲,,,2,,,,139.24267209604167,35.82767902748937,東京都
南平（奥多摩町）,西東京バス（株）,"奥30,奥31,川31,川30,川33,川32",,,"1,1,1,1,1,1",,,,139.16434798612283,35.82725506669629,東京都
岩蔵温泉,西武バス（株）,"飯41-1,飯41",,,"1,1",,,,139.2899589334809,35.82664316531696,東京都
岩蔵温泉,東京都,"梅74乙,梅74甲",,,"2,2",,,,139.2899589334809,35.82664316531696,東京都
青梅第七中学校前,東京都,"梅74乙,梅74甲",,,"2,2",,,,139.25638446895988,35.82630893080672,東京都
柏木,東京都,梅76甲,,,2,,,,139.24557825928676,35.82541823092669,東京都
塔の沢,西東京バス（株）,"奥30,奥31,川31,川30,川33,川32",,,"1,1,1,1,1,1",,,,139.16270565426268,35.82540302598446,東京都
大沢,西東京バス（株）,"奥20,奥21",,,"1,1",,,,139.07753819557317,35.82397974287988,東京都
成木四丁目,東京都,"梅74乙,梅74甲",,,"2,2",,,,139.25351824904286,35.82350611480952,東京都
成木市民センター前,東京都,"梅74乙,梅74甲,梅76甲",,,"2,2,2",,,,139.24849911555606,35.82334657900271,東京都
東京炭鉱前,西武バス（株）,"飯41-1,飯41",,,"1,1",,,,139.28570970809452,35.82307933536945,東京都
東京炭坑前,東京都,"梅74乙,梅74甲",,,"2,2",,,,139.28570970809452,35.82307933536945,東京都
小曽木診療所,西武バス（株）,"飯41-1,飯41",,,"1,1",,,,139.28132130688925,35.82244904098469,東京都
小曽木診療所前,東京都,"梅74乙,梅74甲",,,"2,2",,,,139.28132130688925,35.82244904098469,東京都
中井橋（青梅市）,西武バス（株）,"飯41-1,飯41",,,"1,1",,,,139.27679098833758,35.82229202039499,東京都
中井橋,東京都,"梅74乙,梅74甲",,,"2,2",,,,139.27696569186335,35.82223203102735,東京都
JA小曽木支店,西武バス（株）,"飯41-1,飯41",,,"1,1",,,,139.2790515692692,35.82210736709688,東京都
JA小曽木支店前,東京都,"梅74乙,梅74甲",,,"2,2",,,,139.27872299629195,35.82205070017073,東京都
北小曽木,東京都,梅76甲,,,2,,,,139.23038360488738,35.821488934049945,東京都
不老,西東京バス（株）,"奥20,奥21",,,"1,1",,,,139.08227314406574,35.82147411088282,東京都
蝉沢,西東京バス（株）,"奥30,奥31,川31,川30,川33,川32",,,"1,1,1,1,1,1",,,,139.1618435902955,35.82147198246665,東京都
青梅第六中学校前,東京都,"梅74乙,梅74甲",,,"2,2",,,,139.275549485146,35.820998532987936,東京都
青梅第六中学校,西武バス（株）,"飯41-1,飯41",,,"1,1",,,,139.27555837345946,35.82097436930826,東京都
坂下,東京都,"梅74乙,梅74甲,梅76甲",,,"2,2,2",,,,139.24522603319073,35.819031430374324,東京都
青梅第七小学校前,東京都,"梅74乙,梅74甲",,,"2,2",,,,139.27517206656114,35.81869546213939,東京都
蜆沢,東京都,梅76甲,,,2,,,,139.24171616301567,35.81865279129134,東京都
青梅第七小学校,西武バス（株）,"飯41-1,飯41",,,"1,1",,,,139.275018751688,35.81861630152733,東京都
赤仁田,東京都,梅76甲,,,2,,,,139.23781271404846,35.81855522605453,東京都
寺地,西東京バス（株）,"奥20,奥21",,,"1,1",,,,139.08628159017528,35.8175309184478,東京都
古里付,西東京バス（株）,"奥30,奥31",,,"1,1",,,,139.14175490877852,35.81590659189965,東京都
荒田,西武バス（株）,"飯41-1,飯41",,,"1,1",,,,139.27042766426422,35.81580181125463,東京都
荒田,東京都,"梅74乙,梅74甲",,,"2,2",,,,139.27042766426422,35.81580181125463,東京都
古里駅,西東京バス（株）,"奥30,奥31",,,"1,1",,,,139.15124058270646,35.81576445469843,東京都
古里郵便局,西東京バス（株）,"奥30,奥31",,,"1,1",,,,139.14951959135777,35.815754230917314,東京都
桜木,西東京バス（株）,"奥30,奥31,川31,川30",,,"1,1,1,1",,,,139.15419010067274,35.815747977001045,東京都
竹の花,西東京バス（株）,"奥30,奥31,川31,川30,川33,川32",,,"1,1,1,1,1,1",,,,139.16223481845665,35.81568893399167,東京都
清見ヶ丘,西東京バス（株）,"奥30,奥31",,,"1,1",,,,139.1383615758035,35.8156814817994,東京都
大神,西東京バス（株）,"奥30,奥31",,,"1,1",,,,139.144624692834,35.815216313510525,東京都
鳩の巣,西東京バス（株）,"奥30,奥31",,,"1,1",,,,139.12957509237913,35.815166362616125,東京都
小枕,西武バス（株）,"飯41-1,飯41",,,"1,1",,,,139.2680996510735,35.814875756357345,東京都
小枕,東京都,"梅74乙,梅74甲",,,"2,2",,,,139.2680996510735,35.814875756357345,東京都
黒沢神社,西武バス（株）,"飯41-1,飯41",,,"1,1",,,,139.26461484330298,35.81410243404113,東京都
見沼代親水公園駅,川口市,新郷循環,,,3,,,,139.770395742599,35.81410202600347,東京都
見沼代親水公園駅,東武バスセントラル（株）,"竹03,竹07",,,"1,1",,,,139.770395742599,35.81410202600347,東京都
見沼代親水公園駅,国際興業（株）,西11,,,1,,,,139.770395742599,35.81410202600347,東京都
見沼代親水公園駅,草加市,パリポリくんバス　南西ルート,,,3,,,,139.770395742599,35.81410202600347,東京都
花畑桑袋団地,東武バスセントラル（株）,"谷01,竹14",,,"1,1",,,,139.82276612485964,35.81408473028251,東京都
黒沢神社前,東京都,"梅74乙,梅74甲",,,"2,2",,,,139.2645387429266,35.81403049636369,東京都
見沼代親水公園駅前,東京都,里48,,,2,,,,139.77005577549957,35.813833460926055,東京都
将門,西東京バス（株）,"奥30,奥31",,,"1,1",,,,139.13407691169027,35.81354444360785,東京都
黒沢,東京都,"梅74乙,梅74甲,梅76甲",,,"2,2,2",,,,139.25387765990092,35.813385304567966,東京都
舎人団地,国際興業（株）,"赤26/26-2,川04",,,"1,1",,,,139.7630722118204,35.81338039011205,東京都
川井駅,西東京バス（株）,"奥30,奥31,川31,川30,川33,川32",,,"1,1,1,1,1,1",,,,139.16305260437895,35.813152248977715,東京都
保育所前,東武バスセントラル（株）,"谷01,竹14",,,"1,1",,,,139.82183484119096,35.813047408984026,東京都
舎人団地東,国際興業（株）,西11,,,1,,,,139.7638585342781,35.81275943172144,東京都
親水緑道,国際興業（株）,西11,,,1,,,,139.76718075408957,35.81273142058933,東京都
栃久保,西東京バス（株）,"奥20,奥21",,,"1,1",,,,139.0946020036938,35.812342197692736,東京都
団地南,国際興業（株）,"赤26/26-2,川04,西11",,,"1,1,1",,,,139.76307832228792,35.81210235237652,東京都
氷川神社前,東京都,里48,,,2,,,,139.77030549992446,35.81200992942344,東京都
氷川神社前,国際興業（株）,西11,,,1,,,,139.77030549992446,35.81200992942344,東京都
氷川神社前,東武バスセントラル（株）,"竹03,竹07",,,"1,1",,,,139.77030549992446,35.81200992942344,東京都
白丸,西東京バス（株）,"奥30,奥31",,,"1,1",,,,139.11544228765598,35.81160940324466,東京都
舎人五丁目,東武バスセントラル（株）,竹02,,,1,,,,139.76742827360323,35.8105759640203,東京都
舎人団地南,東武バスセントラル（株）,竹02,,,1,,,,139.7645557364889,35.8105376107074,東京都
八雲,西東京バス（株）,"奥30,奥31,川31,川30",,,"1,1,1,1",,,,139.16189638760105,35.810320301879365,東京都
足立入谷小学校,国際興業（株）,"川04,西11",,,"1,1",,,,139.76013667448703,35.81018566551888,東京都
柳川,西武バス（株）,"飯41-1,飯41",,,"1,1",,,,139.25943946267762,35.809945569455095,東京都
柳川,東京都,"梅74乙,梅74甲,梅76甲",,,"2,2,2",,,,139.25943946267762,35.809945569455095,東京都
四号公園入口,国際興業（株）,西11,,,1,,,,139.75663543209575,35.80978759054596,東京都
下栃久保,西東京バス（株）,"奥20,奥21",,,"1,1",,,,139.09476555637184,35.80975557964324,東京都
松葉,西東京バス（株）,"奥30,奥31,川31,川30",,,"1,1,1,1",,,,139.1587902486605,35.80968258712577,東京都
入谷三丁目,東武バスセントラル（株）,竹02,,,1,,,,139.76308229452331,35.80927635652438,東京都
入谷三丁目,国際興業（株）,赤26/26-2,,,1,,,,139.76308229452331,35.80927635652438,東京都
入谷九丁目,国際興業（株）,川04,,,1,,,,139.75886295569128,35.80905100442095,東京都
奥多摩駅,西東京バス（株）,"急行,奥20,奥30,奥31,奥15,奥14,奥11,奥10,奥09,奥12,奥21",,,"1,1,1,1,1,1,1,1,1,1,1",,,,139.09655878664321,35.80895995712762,東京都
舎人町,東武バスセントラル（株）,"竹01,竹02,竹03,竹07,竹08",,,"1,1,1,1,1",,,,139.77090164339742,35.808857072685946,東京都
市営住宅,西東京バス（株）,"河11,小08",,,"1,1",,,,139.30085621190926,35.80857202204668,東京都
峠下,西東京バス（株）,"河11,小08",,,"1,1",,,,139.30348238491928,35.80827602084872,東京都
放射11号舎人,東京都,里48,,,2,,,,139.77015839002934,35.80828019861829,東京都
放射11号舎人,東武バスセントラル（株）,竹08,,,1,,,,139.77015839002934,35.80828019861829,東京都
西門寺橋,東武バスセントラル（株）,"竹01,竹02,竹03,竹07,竹08",,,"1,1,1,1,1",,,,139.7730556527762,35.807899206312605,東京都
南一丁目,西東京バス（株）,"奥20,奥21",,,"1,1",,,,139.09566255298137,35.80783823837164,東京都
木野下神社,西東京バス（株）,"河11,小08",,,"1,1",,,,139.29717518996205,35.80738734115164,東京都
舎人一号公園,国際興業（株）,西11,,,1,,,,139.7541247186445,35.80732481859777,東京都
水神橋（足立区）,東武バスセントラル（株）,竹14,,,1,,,,139.80149553895322,35.80729836188724,東京都
入谷四丁目,東武バスセントラル（株）,竹02,,,1,,,,139.76313764560132,35.807149384210994,東京都
入谷四丁目,国際興業（株）,赤26/26-2,,,1,,,,139.76313764560132,35.807149384210994,東京都
原今井,西武バス（株）,"入市32-3,入市32-2,入市32-1,入市32",,,"1,1,1,1",,,,139.31464009929778,35.80705398901035,東京都
原今井,入間市,てぃーワゴン　金子コース,,,3,,,,139.31464009929778,35.80705398901035,東京都
入谷北,国際興業（株）,川04,,,1,,,,139.7591166235101,35.80687459737666,東京都
南二丁目,西東京バス（株）,"奥15,奥14,奥11,奥10,奥09,奥12",,,"1,1,1,1,1,1",,,,139.09547367445995,35.806727229001105,東京都
古千谷,東武バスセントラル（株）,"竹01,竹02,竹03,竹07,竹08",,,"1,1,1,1,1",,,,139.77648650646327,35.806686703156096,東京都
文教大学（東京あだちキャンパス）,東武バスセントラル（株）,"竹16,竹16急行,北11,六19,谷02",,,"1,1,1,1,1",,,,139.80668876441598,35.80663170539906,東京都
花畑五丁目,東武バスセントラル（株）,"竹15-2,北11,六19,綾40-2",,,"1,1,1,1",,,,139.81142700056967,35.806567897741196,東京都
花畑北中学校入口,東武バスセントラル（株）,"北11,六19",,,"1,1",,,,139.81569915698444,35.80647480080753,東京都
中郷（足立区）,東武バスセントラル（株）,竹01,,,1,,,,139.76540719970887,35.80627926010454,東京都
南三丁目,西東京バス（株）,"奥15,奥14,奥11,奥10,奥09,奥12",,,"1,1,1,1,1,1",,,,139.09505873340035,35.8061822204658,東京都
花畑六丁目,東武バスセントラル（株）,"北11,六19",,,"1,1",,,,139.81760818330105,35.80599872675804,東京都
軍畑駅入口,東京都,梅01,,,2,,,,139.20740128766656,35.8058109785845,東京都
軍畑駅入口,西東京バス（株）,御11,,,1,,,,139.20740128766656,35.8058109785845,東京都
今井市民センター前,西武バス（株）,"入市32-3,入市32-2,入市32-1,入市32",,,"1,1,1,1",,,,139.31082411255036,35.805778753629625,東京都
花畑団地,東武バスセントラル（株）,"竹15,竹15-2,六18,綾40,綾40-2",,,"1,1,1,1,1",,,,139.8124486074586,35.8057804754272,東京都
古千谷橋,東武バスセントラル（株）,"竹01,竹02,竹03,竹07,竹08",,,"1,1,1,1,1",,,,139.77908881214591,35.80577024329393,東京都
木野下,西東京バス（株）,"河11,小08",,,"1,1",,,,139.29424439518274,35.80571997072302,東京都
中郷,国際興業（株）,川14-2,,,1,,,,139.7661585411897,35.8057140713154,東京都
竹の塚中学校東,東武バスセントラル（株）,"竹13,竹14",,,"1,1",,,,139.79946213691645,35.8056876545003,東京都
花畑四丁目,東武バスセントラル（株）,"竹15,竹15-2,竹16,北11,六18,六19,綾40,綾40-2",,,"1,1,1,1,1,1,1,1",,,,139.81067764581894,35.805568017598304,東京都
入谷八丁目,国際興業（株）,西11,,,1,,,,139.7560456608691,35.805410267068346,東京都
小峰屋前,西武バス（株）,"入市32-3,入市32-2,入市32-1,入市32",,,"1,1,1,1",,,,139.30881069985693,35.80536846705118,東京都
舎人駅,国際興業（株）,川14-2,,,1,,,,139.76895080652454,35.80527642208872,東京都
はんの木橋,東武バスセントラル（株）,"竹01,竹02,竹03,竹07,竹08",,,"1,1,1,1,1",,,,139.77993014731828,35.805161188386236,東京都
団地入口（足立区）,東武バスセントラル（株）,"竹15,竹15-2",,,"1,1",,,,139.80543890585204,35.805160715887865,東京都
聖明福祉協会前,西武バス（株）,"飯41-1,飯41",,,"1,1",,,,139.26510098731683,35.805129027757275,東京都
聖明福祉協会前,東京都,"梅74乙,梅74甲,梅76甲",,,"2,2,2",,,,139.26510098731683,35.805129027757275,東京都
聖二之橋,東武バスセントラル（株）,"竹06,竹10",,,"1,1",,,,139.78340818862554,35.80511212740406,東京都
鵜の瀬橋入口,東京都,梅01,,,2,,,,139.18631821615963,35.80493146021163,東京都
入谷西,国際興業（株）,"川14-2,西11",,,"1,1",,,,139.76203421419333,35.80494572348603,東京都
花畑記念公園入口,東武バスセントラル（株）,"北11,六18,六19",,,"1,1,1",,,,139.81231336824442,35.80483614040953,東京都
桜花小学校入口,東武バスセントラル（株）,"北11,六19",,,"1,1",,,,139.81760821941057,35.804804155653066,東京都
沢井駅入口,東京都,梅01,,,2,,,,139.1928840559367,35.80473283159846,東京都
沢井駅入口,西東京バス（株）,御11,,,1,,,,139.1928840559367,35.80473283159846,東京都
入谷五丁目,国際興業（株）,"赤26/26-2,西11",,,"1,1",,,,139.76421485927725,35.80474275175186,東京都
初縄田,西東京バス（株）,"奥30,奥31",,,"1,1",,,,139.11005783635153,35.80471570507281,東京都
水神,東京都,北47,,,2,,,,139.8015981128483,35.8046328657726,東京都
奥多摩中学校,西東京バス（株）,"奥30,奥31",,,"1,1",,,,139.10101805960107,35.80455567268138,東京都
金方,東武バスセントラル（株）,"竹01,竹02",,,"1,1",,,,139.7611051515245,35.804413534765025,東京都
七日市場,西武バス（株）,"入市32-3,入市32-2,入市32-1,入市32",,,"1,1,1,1",,,,139.3068009209728,35.80433214798697,東京都
七日市場,西東京バス（株）,"河11,小08",,,"1,1",,,,139.3068009209728,35.80433214798697,東京都
二俣尾駅,西東京バス（株）,御11,,,1,,,,139.2153453514837,35.80429031360471,東京都
あいぐみ公園前,東武バスセントラル（株）,"北11,六18,六19",,,"1,1,1",,,,139.81516454563143,35.80420674817419,東京都
足立清掃工場前,東京都,北47,,,2,,,,139.79774593411838,35.804067807332245,東京都
弁天峡,西東京バス（株）,"奥15,奥14,奥11,奥10,奥09,奥12",,,"1,1,1,1,1,1",,,,139.09237935067887,35.80391096638659,東京都
入谷一丁目,東京都,里48,,,2,,,,139.77024323010903,35.80391942448513,東京都
入谷一丁目,東武バスセントラル（株）,竹08,,,1,,,,139.77024323010903,35.80391942448513,東京都
入谷一丁目,国際興業（株）,川14-2,,,1,,,,139.77024323010903,35.80391942448513,東京都
北寺町,東武バスセントラル（株）,"竹06,竹10,竹04",,,"1,1,1",,,,139.7912814694404,35.80378955017636,東京都
足立清掃工場,東武バスセントラル（株）,"竹13,竹14",,,"1,1",,,,139.7976912283446,35.8036859121924,東京都
足立入谷町アパート,国際興業（株）,西11,,,1,,,,139.75779940740293,35.80366231045919,東京都
柚木町三丁目,東京都,梅01,,,2,,,,139.20715607613533,35.80347290717612,東京都
北保木間,東京都,北47,,,2,,,,139.80169175204927,35.80347773532495,東京都
北保木間,東武バスセントラル（株）,"竹15,竹15-2,竹13",,,"1,1,1",,,,139.80169175204927,35.80347773532495,東京都
入谷東,国際興業（株）,"赤26/26-2,西11",,,"1,1",,,,139.76504233022195,35.80343099231943,東京都
藤橋,西東京バス（株）,"河11,小08",,,"1,1",,,,139.30539719630806,35.80333556348196,東京都
伊興赤山,東武バスセントラル（株）,"竹01,竹02,竹03,竹07,竹08",,,"1,1,1,1,1",,,,139.78197475095106,35.80329484805317,東京都
谷野,西東京バス（株）,"河11,小08",,,"1,1",,,,139.29019871445277,35.80327155451718,東京都
櫛かんざし美術館前,東京都,梅01,,,2,,,,139.19700372001836,35.803105358807855,東京都
寒山寺,東京都,梅01,,,2,,,,139.19377650170375,35.802928606219695,東京都
入谷町,国際興業（株）,"川04,川14-2,川16",,,"1,1,1",,,,139.75776055399737,35.80280657226422,東京都
吉野,東京都,"梅01,梅76丙",,,"2,2",,,,139.2092311666517,35.80251525543309,東京都
樫の木公園前,東武バスセントラル（株）,"北11,六18,六19",,,"1,1,1",,,,139.81752968525745,35.802447502530484,東京都
多摩団地前,西武バス（株）,"飯41-1,飯41",,,"1,1",,,,139.26514464630614,35.80216464109245,東京都
多摩団地前,東京都,"梅74乙,梅74甲,梅76甲",,,"2,2,2",,,,139.26514464630614,35.80216464109245,東京都
中野（御岳）,西東京バス（株）,"御10,御11",,,"1,1",,,,139.17471037860804,35.80210691509922,東京都
入谷町,東武バスセントラル（株）,"西03,竹01,竹02",,,"1,1,1",,,,139.76185183775502,35.802057991586516,東京都
流通センター入口,国際興業（株）,"赤26/26-2,川14-2",,,"1,1",,,,139.7624753918627,35.80205273523947,東京都
入谷新道,東武バスセントラル（株）,"西03,竹01,竹02",,,"1,1,1",,,,139.76489517054017,35.80203531808372,東京都
入谷新道,国際興業（株）,"赤26/26-2,川14-2",,,"1,1",,,,139.76489517054017,35.80203531808372,東京都
神庭,西東京バス（株）,"奥30,奥31",,,"1,1",,,,139.10844303526343,35.802008403806994,東京都
塩船観音入口,西東京バス（株）,"急行,河11,小08",,,"1,1,1",,,,139.28806366792156,35.8018969414129,東京都
中入谷,東京都,里48,,,2,,,,139.76922616849353,35.801853539818346,東京都
中入谷,東武バスセントラル（株）,"西03,竹01,竹02",,,"1,1,1",,,,139.76922616849353,35.801853539818346,東京都
中入谷,国際興業（株）,川14-2,,,1,,,,139.76922616849353,35.801853539818346,東京都
琴浦,西東京バス（株）,"奥15,奥14,奥11,奥10,奥09,奥12",,,"1,1,1,1,1,1",,,,139.08680253854106,35.80178826818419,東京都
聖一之橋,東武バスセントラル（株）,"竹01,竹02,竹03,竹06,竹07,竹08,竹10",,,"1,1,1,1,1,1,1",,,,139.7833119096284,35.80179923896638,東京都
花畑三丁目,東武バスセントラル（株）,"竹16,綾40,綾40-2",,,"1,1,1",,,,139.81012002378787,35.80177204882504,東京都
藤橋（青梅市）,西武バス（株）,"入市32-3,入市32-1,入市32",,,"1,1,1",,,,139.30116426456527,35.80150399843023,東京都
竹の塚車庫,東武バスセントラル（株）,"西02,西04,竹06,竹09,竹10,竹04",,,"1,1,1,1,1,1",,,,139.79029301526734,35.801419533084996,東京都
古千谷本町一丁目,東武バスセントラル（株）,"西03,竹01,竹02,竹08",,,"1,1,1,1",,,,139.77355552251186,35.801400674743014,東京都
大曲,東武バスセントラル（株）,"竹13,竹14",,,"1,1",,,,139.79754103620914,35.80138729601113,東京都
御岳駅,西東京バス（株）,"御10,御11",,,"1,1",,,,139.18360240260432,35.801341782288574,東京都
御嶽駅前,東京都,梅01,,,2,,,,139.18344852741313,35.80133038884892,東京都
入谷町,国際興業（株）,赤26/26-2,,,1,,,,139.76070058561606,35.801188330599715,東京都
入谷六丁目,国際興業（株）,西11,,,1,,,,139.76567901732773,35.80118794319994,東京都
笹平橋,西東京バス（株）,"奥15,奥14,奥11,奥10,奥09,奥12",,,"1,1,1,1,1,1",,,,139.09039950671223,35.801056165119036,東京都
東古千谷,東武バスセントラル（株）,"西03,竹01,竹02,竹08",,,"1,1,1,1",,,,139.77798627580313,35.80093835836346,東京都
八雲神社,西東京バス（株）,"河11,小08",,,"1,1",,,,139.3051975800247,35.80090806937682,東京都
病院前（奥多摩町）,西東京バス（株）,"奥15,奥14,奥11,奥10,奥09,奥12",,,"1,1,1,1,1,1",,,,139.08849226207607,35.80088591919753,東京都
林松寺,東武バスセントラル（株）,竹16,,,1,,,,139.80889265221316,35.80076270521526,東京都
伊興町吉浜,東武バスセントラル（株）,"西04,竹01,竹02,竹08",,,"1,1,1,1",,,,139.7837099668228,35.800726050212326,東京都
花畑区民事務所入口,東武バスセントラル（株）,"竹16,竹16急行",,,"1,1",,,,139.805291834118,35.80055845471189,東京都
諏訪神社前,西武バス（株）,"飯41-1,飯41",,,"1,1",,,,139.2654749302251,35.80050761557254,東京都
諏訪神社前,東京都,"梅74乙,梅74甲,梅76甲",,,"2,2,2",,,,139.2654749302251,35.80050761557254,東京都
保木間五丁目,東武バスセントラル（株）,"竹16,竹16急行",,,"1,1",,,,139.80358669476743,35.8004759138268,東京都
西保木間二丁目,東武バスセントラル（株）,"竹16,竹16急行,竹13",,,"1,1,1",,,,139.79873319797107,35.80031162379273,東京都
桧村,西東京バス（株）,"奥15,奥14,奥11,奥10,奥09,奥12",,,"1,1,1,1,1,1",,,,139.0846516447385,35.800237165359306,東京都
花畑第一小学校入口,東武バスセントラル（株）,"北11,六18,六19",,,"1,1,1",,,,139.81746226256485,35.800007233240436,東京都
玉堂美術館,東京都,梅01,,,2,,,,139.18361465426148,35.79978946301234,東京都
払沢,西東京バス（株）,"御10,御11",,,"1,1",,,,139.18194369372955,35.79976106709834,東京都
塩船観音入口,東京都,梅77甲,,,2,,,,139.28604031086627,35.79956300076077,東京都
奥多摩橋,東京都,"梅01,梅76丙",,,"2,2",,,,139.2118848460797,35.79949449310662,東京都
竹の塚七丁目,東武バスセントラル（株）,"竹16,竹16急行",,,"1,1",,,,139.7947213290082,35.799414655326814,東京都
六ツ木都住,朝日自動車（株）,"綾瀬駅〜六ツ木都住〜八潮駅南口,綾瀬駅〜六ツ木都住",,,"1,1",,,,139.83951166807887,35.79938907922499,東京都
六ツ木都住,東武バスセントラル（株）,"綾21,有29,西21,西22,有65,はるかぜ7号（西新井・六木線）",,,"1,1,1,1,1,1",,,,139.83951166807887,35.79938907922499,東京都
慶友病院前,東京都,梅77甲,,,2,,,,139.2878701641219,35.799360016138145,東京都
青梅慶友病院,西東京バス（株）,"河11,小08",,,"1,1",,,,139.2878701641219,35.799360016138145,東京都
流通センター北,東武バスセントラル（株）,西03,,,1,,,,139.76259047700498,35.799362771808205,東京都
流通センター,東武バスセントラル（株）,西03,,,1,,,,139.76475861135933,35.799343960012926,東京都
橋詰,西東京バス（株）,"奥15,奥14,奥11,奥10,奥09,奥12",,,"1,1,1,1,1,1",,,,139.0830264363756,35.799144166608876,東京都
今寺榎,西武バス（株）,"入市32-3,入市32-1,入市32",,,"1,1,1",,,,139.2968247024819,35.79900862024319,東京都
伊興町,東武バスセントラル（株）,"竹01,竹02,竹03,竹06,竹07,竹08,竹10",,,"1,1,1,1,1,1,1",,,,139.7858181834703,35.798973005650176,東京都
檜沢,西東京バス（株）,"御10,御11",,,"1,1",,,,139.17850652484844,35.79892296993244,東京都
伊興住区センター前,東武バスセントラル（株）,"西03,西04",,,"1,1",,,,139.77945371897576,35.79893059103326,東京都
吹上中学校入口,東京都,梅77甲,,,2,,,,139.28358666002717,35.79884163472012,東京都
花畑一丁目,東武バスセントラル（株）,"綾40,綾40-2",,,"1,1",,,,139.810045400087,35.79865127774037,東京都
足立流通センター,東京都,里48,,,2,,,,139.7656602259405,35.798464093886594,東京都
足立流通センター,国際興業（株）,西11,,,1,,,,139.7656602259405,35.798464093886594,東京都
都立花畑学園,東武バスセントラル（株）,"綾20,綾22,綾24",,,"1,1,1",,,,139.81501722935099,35.798392976192325,東京都
藤橋小,西東京バス（株）,"河11,小08",,,"1,1",,,,139.30458383225735,35.79837335409526,東京都
吹上,東京都,梅77甲,,,2,,,,139.2812768928846,35.7983644090296,東京都
琴沢橋,西東京バス（株）,"御10,御11",,,"1,1",,,,139.16895128083902,35.798339649413506,東京都
第五都営住宅,東武バスセントラル（株）,"綾20,綾22,綾24",,,"1,1,1",,,,139.81181360054973,35.79832714779835,東京都
仲保木間,東武バスセントラル（株）,"竹13,竹14",,,"1,1",,,,139.79773501482575,35.79811435220877,東京都
淵江第一小学校入口,東武バスセントラル（株）,"綾20,綾24",,,"1,1",,,,139.8088141300128,35.79798522606556,東京都
境橋,西東京バス（株）,"奥15,奥14,奥11,奥10,奥09,奥12",,,"1,1,1,1,1,1",,,,139.0777878734498,35.79782977834868,東京都
第三小学校前（青梅市）,西武バス（株）,"入市32-3,入市32-1,入市32",,,"1,1,1",,,,139.2947899204074,35.79776927121992,東京都
根ヶ布,西武バス（株）,"飯41-1,飯41",,,"1,1",,,,139.2678483235784,35.79762357035064,東京都
根ヶ布,東京都,"梅74乙,梅74甲,梅76甲",,,"2,2,2",,,,139.2678483235784,35.79762357035064,東京都
保木間四丁目,東武バスセントラル（株）,"綾20,綾24",,,"1,1",,,,139.8071489996607,35.79752634194754,東京都
待木医院前,東武バスセントラル（株）,"西02,竹06,竹09,竹04",,,"1,1,1,1",,,,139.78891686744367,35.79747329765552,東京都
六木小学校,朝日自動車（株）,"綾瀬駅〜六ツ木都住〜八潮駅南口,綾瀬駅〜六ツ木都住",,,"1,1",,,,139.83970920807988,35.797336855993876,東京都
六木小学校,東武バスセントラル（株）,"綾21,有29,西21,西22,有65,はるかぜ7号（西新井・六木線）",,,"1,1,1,1,1,1",,,,139.83970920807988,35.797336855993876,東京都
旭が丘団地,西武バス（株）,"深夜,清63,清63-1",,,"1,1,1",,,,139.54466623013576,35.797283251884615,東京都
保木間,東京都,北47,,,2,,,,139.80203053135946,35.79722540468106,東京都
保木間,東武バスセントラル（株）,"竹15,竹15-2",,,"1,1",,,,139.80203053135946,35.79722540468106,東京都
宗泉寺,東京都,梅77甲,,,2,,,,139.27892465900473,35.79715615665709,東京都
霞橋,東京都,梅77甲,,,2,,,,139.28918514093775,35.796948114547824,東京都
霞橋,西東京バス（株）,"河11,小08",,,"1,1",,,,139.28918514093775,35.796948114547824,東京都
三ツ原工業会館,西東京バス（株）,"小02,小03",,,"1,1",,,,139.31339037589453,35.7968240685422,東京都
保木間三丁目,東武バスセントラル（株）,"綾20,綾24",,,"1,1",,,,139.80293936122771,35.79677242465573,東京都
柚木,東京都,"梅01,梅76丙",,,"2,2",,,,139.21365080620956,35.796673720342994,東京都
観音橋,東武バスセントラル（株）,"竹01,竹02,竹03,竹06,竹07,竹08,竹10",,,"1,1,1,1,1,1,1",,,,139.78771338051286,35.796688352439126,東京都
花畑交番前,東武バスセントラル（株）,"北11,六18,六19",,,"1,1,1",,,,139.81949414284406,35.79662430192614,東京都
台田団地,西武バス（株）,"深夜,清64,清64-2",,,"1,1,1",,,,139.53223839063608,35.79659783624041,東京都
足立車検場,東武バスセントラル（株）,"綾20,綾22,綾24",,,"1,1,1",,,,139.81740458990419,35.7965965217178,東京都
旭が丘五丁目,西武バス（株）,"深夜,清62,清63,清63-1",,,"1,1,1,1",,,,139.54401879865654,35.79653305690062,東京都
ケーブル下,西東京バス（株）,"御10,御11",,,"1,1",,,,139.16257187716351,35.79650748330713,東京都
石神前駅,西東京バス（株）,御11,,,1,,,,139.22388877724097,35.79644184099326,東京都
入谷南,国際興業（株）,"赤26/26-2,川16",,,"1,1",,,,139.76167040026803,35.79610450373111,東京都
北足立市場南,国際興業（株）,川15/15-2/15-3,,,1,,,,139.76400657330683,35.79609625531819,東京都
足立流通センター南,東京都,里48,,,2,,,,139.7660966591583,35.79605494638581,東京都
足立流通センター南,国際興業（株）,"川15/15-2/15-3,西11",,,"1,1",,,,139.7660966591583,35.79605494638581,東京都
今井3丁目,西東京バス（株）,"小02,小03",,,"1,1",,,,139.31018596292768,35.79602712312379,東京都
保木間町,東武バスセントラル（株）,"綾40,綾40-2",,,"1,1",,,,139.80999159329684,35.79602822982915,東京都
舎人公園駅,国際興業（株）,"川15/15-2/15-3,西11",,,"1,1",,,,139.768776415192,35.79594033406531,東京都
吹上しょうぶ公園入口,東京都,梅77甲,,,2,,,,139.27785341940563,35.79591294115353,東京都
舎人公園東,国際興業（株）,西11,,,1,,,,139.7742831514245,35.79580692445003,東京都
六木三丁目,東武バスセントラル（株）,有64,,,1,,,,139.84298122308223,35.79572566077639,東京都
西伊興三丁目,国際興業（株）,西11,,,1,,,,139.7779456215556,35.79569816221434,東京都
伊興小学校前,東武バスセントラル（株）,"西03,西04",,,"1,1",,,,139.77943049783357,35.7956229396867,東京都
伊興小学校前,国際興業（株）,西11,,,1,,,,139.77943049783357,35.7956229396867,東京都
南花畑,東武バスセントラル（株）,"綾20,綾22,綾24",,,"1,1,1",,,,139.81725574600875,35.79547665230117,東京都
竹の塚六丁目,東武バスセントラル（株）,"竹16,竹16急行",,,"1,1",,,,139.79456535845986,35.795470119693626,東京都
南花畑四丁目,東武バスセントラル（株）,"北11,六18,六19",,,"1,1,1",,,,139.8208240699009,35.79545722450906,東京都
大門市民センター前,東京都,梅77甲,,,2,,,,139.29094116384226,35.79536834743043,東京都
舎人公園前,東京都,里48,,,2,,,,139.77023213864933,35.795221305166386,東京都
桜木橋北詰,朝日自動車（株）,"綾瀬駅〜六ツ木都住〜八潮駅南口,綾瀬駅〜六ツ木都住",,,"1,1",,,,139.84014034645023,35.795087158153585,東京都
桜木橋北詰,東武バスセントラル（株）,"綾21,有29,西21,西22,有64,有65,はるかぜ7号（西新井・六木線）",,,"1,1,1,1,1,1,1",,,,139.84014034645023,35.795087158153585,東京都
竹の塚駅入口,東武バスセントラル（株）,西02,,,1,,,,139.7881222911037,35.79499357377661,東京都
三ツ原西,西東京バス（株）,"小02,小03",,,"1,1",,,,139.30859474554325,35.79496275936972,東京都
大場川水門,京成バス（株）,金62,,,1,,,,139.84745840527498,35.79488324177775,東京都
JA西東京,西武バス（株）,"入市32-3,入市32-1,入市32",,,"1,1,1",,,,139.29144975404404,35.794795095245625,東京都
JA西東京,西東京バス（株）,"河11,小08",,,"1,1",,,,139.29144975404404,35.794795095245625,東京都
新河岸都営住宅入口,国際興業（株）,"池21,高02,東練01",,,"1,1,1",,,,139.66569065322986,35.79475875062079,東京都
六木四丁目,朝日自動車（株）,"綾瀬駅〜六ツ木都住〜八潮駅南口,綾瀬駅〜六ツ木都住",,,"1,1",,,,139.83848159472066,35.794716387007874,東京都
六木四丁目,東武バスセントラル（株）,"西21,西22,はるかぜ7号（西新井・六木線）",,,"1,1,1",,,,139.83848159472066,35.794716387007874,東京都
峰谷,西東京バス（株）,奥14,,,1,,,,139.00204986372924,35.79467205409368,東京都
竹の塚四丁目,東武バスセントラル（株）,"竹13,竹14",,,"1,1",,,,139.79784872883985,35.79464309387558,東京都
惣岳,西東京バス（株）,"奥15,奥14,奥11,奥10,奥09,奥12",,,"1,1,1,1,1,1",,,,139.06981924881552,35.79442831650348,東京都
徳丸橋,国際興業（株）,"池21,高02,東練01",,,"1,1,1",,,,139.66394915114302,35.794440410532616,東京都
妙光院,東京都,梅77甲,,,2,,,,139.2764674980784,35.794419190889805,東京都
台田団地中央,西武バス（株）,"深夜,清64,清64-2",,,"1,1,1",,,,139.53011141889922,35.794385021391975,東京都
即清寺,東京都,"梅01,梅76丙",,,"2,2",,,,139.21459320356638,35.794368181537024,東京都
中山,西東京バス（株）,"奥15,奥14,奥11,奥10,奥09,奥12",,,"1,1,1,1,1,1",,,,139.05718210608347,35.79432048807787,東京都
伊興三丁目,国際興業（株）,西11,,,1,,,,139.78304245930946,35.79427210211519,東京都
板小屋,西東京バス（株）,"奥15,奥14,奥11,奥10,奥09,奥12",,,"1,1,1,1,1,1",,,,139.06321709442472,35.79425203441514,東京都
峰谷渓流釣場,西東京バス（株）,奥14,,,1,,,,139.0043375632872,35.79421248343147,東京都
竹の塚駅東口,東武バスセントラル（株）,"竹15,竹15-2,竹16,竹16急行,綾20,綾24,竹13,竹14",,,"1,1,1,1,1,1,1,1",,,,139.7915431497754,35.79418877905129,東京都
団地交番前,西武バス（株）,"深夜,清62",,,"1,1",,,,139.53616472502108,35.794155731252594,東京都
昭洋工業,西東京バス（株）,"小02,小03",,,"1,1",,,,139.31996518805914,35.794108754558906,東京都
滝のり沢,西東京バス（株）,"奥15,奥14,奥11,奥10,奥09,奥12",,,"1,1,1,1,1,1",,,,139.05183875921514,35.79407548887128,東京都
桃ヶ沢,西東京バス（株）,"奥15,奥14,奥11,奥10,奥09,奥12",,,"1,1,1,1,1,1",,,,139.05939318120886,35.79404223307543,東京都
竹の塚駅西口,東武バスセントラル（株）,"竹01,竹02,竹03,竹06,竹07,竹08,竹09,竹10,竹04",,,"1,1,1,1,1,1,1,1,1",,,,139.78990690010883,35.794049574284806,東京都
JA西東京前,東京都,梅77甲,,,2,,,,139.2913814553526,35.79401879634305,東京都
光明寺下,東京都,梅77甲,,,2,,,,139.2736991669941,35.79399888843846,東京都
竹の塚駅前,東京都,北47,,,2,,,,139.79151927101378,35.79395686004281,東京都
水根,西東京バス（株）,"奥15,奥14,奥11,奥10,奥09,奥12",,,"1,1,1,1,1,1",,,,139.0471000366422,35.793932418491224,東京都
梅久保,西東京バス（株）,"奥15,奥14,奥11,奥10,奥09,奥12",,,"1,1,1,1,1,1",,,,139.0731899757608,35.793882512228954,東京都
神明二丁目,朝日自動車（株）,"綾瀬駅〜六ツ木都住〜八潮駅南口,綾瀬駅〜六ツ木都住",,,"1,1",,,,139.83447470345283,35.79384708515749,東京都
神明二丁目（足立区）,東武バスセントラル（株）,"西21,西22,はるかぜ7号（西新井・六木線）",,,"1,1,1",,,,139.8342594434439,35.79380098148134,東京都
舟渡小学校,国際興業（株）,"池21,高02,東練01,東練05,浮舟80",,,"1,1,1,1,1",,,,139.68164241018277,35.79379630395025,東京都
加賀団地,東京都,里48-2,,,2,,,,139.7618071361269,35.79378977786317,東京都
加賀団地,国際興業（株）,"赤26/26-2,川15/15-2/15-3",,,"1,1",,,,139.7618071361269,35.79378977786317,東京都
第四小学校前,西武バス（株）,"飯41-1,飯41",,,"1,1",,,,139.2705783967723,35.79373244065613,東京都
舟渡水辺公園,国際興業（株）,"池21,高02,東練01",,,"1,1,1",,,,139.67173511646718,35.793739934610734,東京都
青梅第四小学校前,東京都,"梅74乙,梅74甲,梅76甲,梅77甲",,,"2,2,2,2",,,,139.27058450955977,35.79365994943353,東京都
舟渡四丁目,国際興業（株）,"池21,高02,東練01",,,"1,1,1",,,,139.6753408519365,35.79365597713423,東京都
舟渡町,国際興業（株）,"池21,高02,東練01,東練05,浮舟80",,,"1,1,1,1,1",,,,139.6855409398021,35.79364895822764,東京都
今寺,西東京バス（株）,"河11,小08",,,"1,1",,,,139.30371407514082,35.7936200049602,東京都
西伊興小学校前,東武バスセントラル（株）,"西03,西04",,,"1,1",,,,139.77939501515544,35.79363261408737,東京都
水元かわせみの里,京成バス（株）,金63,,,1,,,,139.860630272222,35.793628847761525,東京都
笹目橋,国際興業（株）,増14,,,1,,,,139.64347621593708,35.79348087893809,東京都
下り,西東京バス（株）,奥14,,,1,,,,139.00673941573044,35.79340048153479,東京都
物見塚,西東京バス（株）,"小02,小03",,,"1,1",,,,139.32110623592905,35.79319472907809,東京都
山城橋,東京都,梅77甲,,,2,,,,139.2765675357571,35.793135734357435,東京都
加賀中学校入口,東京都,里48-2,,,2,,,,139.75847580834483,35.7931330529978,東京都
西水元つばさ公園,京成バス（株）,金62,,,1,,,,139.84729985276823,35.79313348864849,東京都
公園前（足立区）,東武バスセントラル（株）,"竹15,竹15-2,綾20,綾24,竹13,竹14",,,"1,1,1,1,1,1",,,,139.79431518586105,35.79300372568528,東京都
栗原新田,西武バス（株）,小手07,,,1,,,,139.3454790153676,35.79297069506403,東京都
公園前,東京都,北47,,,2,,,,139.7947890369309,35.79297124478692,東京都
保木間二丁目,東武バスセントラル（株）,"綾40,綾40-2",,,"1,1",,,,139.8102602782309,35.792967733227755,東京都
青梅看護専門学校,西東京バス（株）,"河11,河10",,,"1,1",,,,139.29585446011535,35.79286960178898,東京都
旭が丘二丁目,西武バス（株）,"深夜,清62,清63,清63-1",,,"1,1,1,1",,,,139.53903033784545,35.7928670541589,東京都
神明一丁目,東武バスセントラル（株）,はるかぜ7号（西新井・六木線）,,,1,,,,139.8304214397132,35.79287472752379,東京都
神明一丁目（足立区）,東武バスセントラル（株）,"西21,西22",,,"1,1",,,,139.8303236707316,35.79283751037815,東京都
旧道交差点,東京都,北47,,,2,,,,139.7990359169497,35.79283249142803,東京都
旧道交差点,東武バスセントラル（株）,"竹15,竹15-2,綾20,綾24",,,"1,1,1,1",,,,139.7990359169497,35.79283249142803,東京都
保木間仲通り,東京都,北47,,,2,,,,139.8018262461517,35.7928192279334,東京都
保木間仲通り,東武バスセントラル（株）,"竹15,竹15-2,綾20,綾24",,,"1,1,1,1",,,,139.8018262461517,35.7928192279334,東京都
雪見橋,朝日自動車（株）,"綾瀬駅〜六ツ木都住〜八潮駅南口,綾瀬駅〜六ツ木都住",,,"1,1",,,,139.83251710900407,35.7927986186479,東京都
伊興区民事務所入口,東武バスセントラル（株）,西02,,,1,,,,139.78739492998199,35.79276269412324,東京都
看護学校入口,西東京バス（株）,"河11,小08",,,"1,1",,,,139.29267723069285,35.79268898652662,東京都
城前橋,東京都,梅77甲,,,2,,,,139.27440414927972,35.792630735960905,東京都
舟渡一丁目,国際興業（株）,"高02,東練01,東練05,浮舟80",,,"1,1,1,1",,,,139.69115335296522,35.7926207316507,東京都
野上,西武バス（株）,"入市32-3,入市32-1,入市32",,,"1,1,1",,,,139.28698159692462,35.79258107626144,東京都
野上,東京都,梅77甲,,,2,,,,139.28698159692462,35.79258107626144,東京都
南花畑三丁目,東武バスセントラル（株）,"西21,西22,はるかぜ7号（西新井・六木線）",,,"1,1,1",,,,139.82334645514803,35.79253173879807,東京都
神明町（足立区）,東武バスセントラル（株）,"綾61,綾62",,,"1,1",,,,139.82830133977905,35.79253172250133,東京都
奥多摩湖,西東京バス（株）,"奥15,奥14,奥11,奥10,奥09,奥12",,,"1,1,1,1,1,1",,,,139.0484596432245,35.79250160638888,東京都
新広橋,東武バスセントラル（株）,"有38,有64,有65",,,"1,1,1",,,,139.84061760216483,35.79250444896067,東京都
板橋市場,板橋区,りんりんGO,,,3,,,,139.65069199150489,35.79243458907921,東京都
雨降り,西東京バス（株）,奥14,,,1,,,,139.01161140322506,35.792399719149245,東京都
バーベキュー広場・冒険広場入口,京成バス（株）,金63,,,1,,,,139.8672184708296,35.79223618365242,東京都
六木一丁目,東武バスセントラル（株）,"綾21,有29,有38",,,"1,1,1",,,,139.83927826880202,35.79219866416385,東京都
皿沼二丁目,東京都,里48,,,2,,,,139.77016864309843,35.792171085239794,東京都
皿沼二丁目,国際興業（株）,川15/15-2/15-3,,,1,,,,139.77016864309843,35.792171085239794,東京都
西水元四丁目,京成バス（株）,金62,,,1,,,,139.8487200580097,35.79202279900629,東京都
上郷,東京都,"梅01,梅76丙",,,"2,2",,,,139.21853525015703,35.791997985910214,東京都
団地保育園前,西武バス（株）,"深夜,清64,清64-2",,,"1,1,1",,,,139.52679312542548,35.79193193767933,東京都
台田,西武バス（株）,清62,,,1,,,,139.53283111603372,35.791883467490926,東京都
水元五丁目,京成バス（株）,金61,,,1,,,,139.86015535221725,35.79184411233361,東京都
太陽誘電モバテク前,西東京バス（株）,"小02,小03",,,"1,1",,,,139.32285641570445,35.791816054250276,東京都
花畑小学校前,東武バスセントラル（株）,"西21,西22,はるかぜ7号（西新井・六木線）",,,"1,1,1",,,,139.826551499432,35.79180848408564,東京都
保木間一丁目,東京都,北47,,,2,,,,139.80255372466274,35.79169825860129,東京都
瑞穂二本木,西武バス（株）,小手07,,,1,,,,139.35844400331214,35.79162079631633,東京都
浮間舟渡駅,国際興業（株）,"高02,東練01,東練05,浮舟80",,,"1,1,1,1",,,,139.69177166864134,35.79160920441384,東京都
伊興地域学習センター東,国際興業（株）,西11,,,1,,,,139.78297506211285,35.79157796358108,東京都
西高島平駅,国際興業（株）,高01/01-2,,,1,,,,139.6459310136278,35.791518263398366,東京都
水元猿町,東武バスセントラル（株）,有51,,,1,,,,139.85885545088874,35.79152306300051,東京都
宮の前（青梅）,西東京バス（株）,"河11,小08",,,"1,1",,,,139.30336168407402,35.791371648348665,東京都
雪見橋南詰,朝日自動車（株）,"綾瀬駅〜六ツ木都住〜八潮駅南口,綾瀬駅〜六ツ木都住",,,"1,1",,,,139.83299488792233,35.79138352237578,東京都
畜産試験場,西東京バス（株）,"小02,小03",,,"1,1",,,,139.30935870237704,35.791294876640016,東京都
大門,西東京バス（株）,"河11,小08,河10",,,"1,1,1",,,,139.29455129846855,35.79114338348701,東京都
東青梅五丁目,西武バス（株）,"入市32,飯41",,,"1,1",,,,139.28058250621714,35.7911355234687,東京都
東青梅五丁目,東京都,"梅70,梅74乙,梅77甲",,,"2,2,2",,,,139.28058250621714,35.7911355234687,東京都
皿沼一丁目,東京都,里48-2,,,2,,,,139.76199721577248,35.791013721795416,東京都
皿沼一丁目,国際興業（株）,"赤26/26-2,川15/15-2/15-3",,,"1,1",,,,139.76199721577248,35.791013721795416,東京都
東青梅,西武バス（株）,"飯41-1,飯41",,,"1,1",,,,139.27083707046975,35.79095250024168,東京都
東青梅,東京都,"梅74乙,梅74甲,梅76甲,梅77甲",,,"2,2,2,2",,,,139.27083707046975,35.79095250024168,東京都
東青梅駅北口,東京都,"梅70,梅74乙,梅74甲,梅76甲",,,"2,2,2,2",,,,139.2721122072336,35.790899490319234,東京都
高島第一中学校,国際興業（株）,"池21,高02,東練01",,,"1,1,1",,,,139.66361090572545,35.79090650696181,東京都
六ツ木団地,東武バスセントラル（株）,"綾21,有29,有38",,,"1,1,1",,,,139.83840170467013,35.790903286555306,東京都
野上町3丁目,西東京バス（株）,"河11,河10",,,"1,1",,,,139.29182403576584,35.79087723438874,東京都
高島平操車場,国際興業（株）,"池20/20-2,赤56,増17,高01/01-2,下赤03",,,"1,1,1,1,1",,,,139.66771025402812,35.79084719643245,東京都
東保木間,東武バスセントラル（株）,"綾20,綾22,綾24",,,"1,1,1",,,,139.81696119004135,35.79081024466271,東京都
加賀一丁目,東京都,里48-2,,,2,,,,139.76124729574107,35.790702900563225,東京都
加賀一丁目,東武バスセントラル（株）,西01,,,1,,,,139.76124729574107,35.790702900563225,東京都
旭が丘通り,西武バス（株）,"清63,清63-1",,,"1,1",,,,139.53741184467543,35.79068786798001,東京都
加賀,東京都,里48-2,,,2,,,,139.75890334892918,35.790672820297054,東京都
加賀,国際興業（株）,川15/15-2/15-3,,,1,,,,139.75890334892918,35.790672820297054,東京都
西新井消防署前,東武バスセントラル（株）,"西03,西04",,,"1,1",,,,139.77934540549512,35.790634060646966,東京都
霞台第二住宅,西東京バス（株）,"河11,河10",,,"1,1",,,,139.2884954353333,35.79059273886657,東京都
青梅総合高校入口,東京都,"梅70,梅74乙,梅74甲,梅76甲,梅77甲,梅77丁",,,"2,2,2,2,2,2",,,,139.26832098877924,35.790563021076565,東京都
皿沼不動,国際興業（株）,川15/15-2/15-3,,,1,,,,139.76412648012425,35.79055662228043,東京都
多摩高校前,東京都,"梅74乙,梅74甲,梅76甲,梅77甲",,,"2,2,2,2",,,,139.24712463296916,35.790517130993194,東京都
東青梅三丁目,西武バス（株）,"入市32,飯41",,,"1,1",,,,139.277371444856,35.79051801021117,東京都
東青梅三丁目,東京都,"梅70,梅74乙,梅77甲",,,"2,2,2",,,,139.277371444856,35.79051801021117,東京都
皿沼不動前,東武バスセントラル（株）,西01,,,1,,,,139.7650116779301,35.79051276711078,東京都
霞台第二住宅,西武バス（株）,"入市32-3,入市32-1,入市32",,,"1,1,1",,,,139.28666587187607,35.7904346554611,東京都
霞台第二住宅,東京都,"梅74乙,梅77甲",,,"2,2",,,,139.28666587187607,35.7904346554611,東京都
志村橋,国際興業（株）,池21,,,1,,,,139.68511857643622,35.7904401885522,東京都
農協前（瑞穂町）,西武バス（株）,"入市54,入市44,入市54　準急",,,"1,1,1",,,,139.3560934342622,35.79043088589186,東京都
辰沼二丁目公園前,朝日自動車（株）,"綾瀬駅〜六ツ木都住〜八潮駅南口,綾瀬駅〜六ツ木都住",,,"1,1",,,,139.83322211826857,35.790431978606875,東京都
第四都営住宅,東武バスセントラル（株）,"綾40,綾40-2",,,"1,1",,,,139.8104764537855,35.79041218295226,東京都
谷在家駅,国際興業（株）,川15/15-2/15-3,,,1,,,,139.7683799858466,35.790317620129,東京都
谷在家団地,東武バスセントラル（株）,西01,,,1,,,,139.7683888739172,35.79031762041507,東京都
青梅車庫,東京都,"梅70,梅74乙,梅74甲,梅76甲,梅77甲",,,"2,2,2,2,2",,,,139.2500059485038,35.790281124931994,東京都
梅郷,東京都,"梅01,梅76丙",,,"2,2",,,,139.2206613793628,35.790242121748584,東京都
青梅第一中学校前,東京都,"梅74乙,梅74甲,梅76甲,梅77甲",,,"2,2,2,2",,,,139.24516985556448,35.790230463578155,東京都
新高島平駅,板橋区,りんりんGO,,,3,,,,139.6529176674146,35.79024083488881,東京都
青梅車庫前,東京都,"梅70,梅74乙,梅74甲,梅76甲,梅77甲",,,"2,2,2,2,2",,,,139.25046561481332,35.79021114548509,東京都
青梅駅前,東京都,"梅01,梅70,梅74乙,梅74甲,梅76甲,梅76丙,梅77乙,梅77甲,梅77丁,梅77丙",,,"2,2,2,2,2,2,2,2,2,2",,,,139.25803081233272,35.79016829943488,東京都
西水元六丁目,東武バスセントラル（株）,"有26,有27,深夜39",,,"1,1,1",,,,139.85304090649635,35.79017885819093,東京都
六万公園前,西武バス（株）,"入市32,飯41",,,"1,1",,,,139.27541692130626,35.79014827918778,東京都
六万公園前,東京都,"梅70,梅74乙,梅74甲,梅76甲",,,"2,2,2,2",,,,139.27541692130626,35.79014827918778,東京都
東青梅駅,西武バス（株）,"入市32,飯41-1",,,"1,1",,,,139.27283827717974,35.79012876771203,東京都
蓮根橋,国際興業（株）,"東練05,浮舟80",,,"1,1",,,,139.6800290733945,35.79007392614398,東京都
花保会館前,東武バスセントラル（株）,"北11,六18,六19,西21,西22,はるかぜ7号（西新井・六木線）",,,"1,1,1,1,1,1",,,,139.82214190192622,35.79005064925013,東京都
上町,東京都,"梅70,梅74乙,梅74甲,梅76甲,梅77甲",,,"2,2,2,2,2",,,,139.2532969396178,35.79001457834304,東京都
師岡町三丁目,西武バス（株）,飯41,,,1,,,,139.281684667568,35.78998652242926,東京都
師岡町三丁目,東京都,梅70,,,2,,,,139.281684667568,35.78998652242926,東京都
青梅駅,西東京バス（株）,"御11,青21",,,"1,1",,,,139.2581096938703,35.789964159063416,東京都
栗原北小学校北,東武バスセントラル（株）,西02,,,1,,,,139.78651982444322,35.789957708789856,東京都
西水元三丁目,京成バス（株）,金62,,,1,,,,139.85001474244183,35.78994891426356,東京都
西水元三丁目,東武バスセントラル（株）,"有26,有27,深夜39",,,"1,1,1",,,,139.85001474244183,35.78994891426356,東京都
裏宿町,東京都,"梅74乙,梅74甲,梅76甲,梅77甲",,,"2,2,2,2",,,,139.24319063167476,35.789931301422115,東京都
仲町,東京都,"梅01,梅70,梅74乙,梅74甲,梅76甲,梅76丙,梅77乙,梅77甲,梅77丙",,,"2,2,2,2,2,2,2,2,2",,,,139.25571359370647,35.78989771308863,東京都
日立前,西東京バス（株）,"小02,小03",,,"1,1",,,,139.32157132388159,35.78988013083432,東京都
東青梅駅,西東京バス（株）,急行,,,1,,,,139.27203086285502,35.78986961000066,東京都
板橋特別支援学校,国際興業（株）,"増17,高01/01-2,下赤03",,,"1,1,1",,,,139.66455305911074,35.78983336935122,東京都
東青梅駅前,東京都,"梅74乙,梅74甲,梅76甲,梅77丁,梅77丙",,,"2,2,2,2,2",,,,139.27217807381592,35.789795178322585,東京都
成増団地入口,国際興業（株）,"増14,増19,高01/01-2",,,"1,1,1",,,,139.6363805178263,35.789774590201525,東京都
西分,東京都,"梅70,梅74乙,梅74甲,梅76甲,梅77甲,梅77丁",,,"2,2,2,2,2,2",,,,139.2655163362842,35.78974719433723,東京都
蓮根三丁目,国際興業（株）,"東練05,浮舟80",,,"1,1",,,,139.67752710972977,35.78968664281385,東京都
青梅総合高校前,東京都,"梅74乙,梅74甲,梅76甲,梅77丁",,,"2,2,2,2",,,,139.2705149287252,35.78967430785466,東京都
高島平九丁目,国際興業（株）,"池20/20-2,赤56",,,"1,1",,,,139.67289867901306,35.78968171420278,東京都
水元そよかぜ園,京成バス（株）,金61,,,1,,,,139.86323020169195,35.789680773246786,東京都
大麦代,西東京バス（株）,"奥14,奥11,奥10,奥09,奥12",,,"1,1,1,1,1",,,,139.04245689574864,35.78964373110979,東京都
高島平駅,国際興業（株）,"池21,増17,高01/01-2,高02,高100,東練01,東練01-2,下赤03",,,"1,1,1,1,1,1,1,1",,,,139.66024345712006,35.78958189131989,東京都
河辺北,西東京バス（株）,"河11,河10",,,"1,1",,,,139.28678450662068,35.78955670678011,東京都
法林寺裏,東武バスセントラル（株）,"有26,有27,深夜39",,,"1,1,1",,,,139.85575656014092,35.78955559305006,東京都
高島第三小裏,国際興業（株）,高01/01-2,,,1,,,,139.648794681032,35.789379262493036,東京都
下戸,西武バス（株）,"深夜,清62,清64,清64-2",,,"1,1,1,1",,,,139.52748246927518,35.789321464955854,東京都
幸田小学校,京成バス（株）,金62,,,1,,,,139.85017447149013,35.789264009807404,東京都
幸田小学校,東武バスセントラル（株）,"有26,有27,深夜39",,,"1,1,1",,,,139.85017447149013,35.789264009807404,東京都
西分二丁目,東京都,"梅70,梅74乙,梅74甲,梅76甲,梅77甲,梅77丁",,,"2,2,2,2,2,2",,,,139.2634090900511,35.78922552188524,東京都
増田橋,東武バスセントラル（株）,竹14,,,1,,,,139.79779280958937,35.7892075872342,東京都
鹿浜八丁目,東京都,里48-2,,,2,,,,139.7621356003208,35.78918838495995,東京都
鹿浜八丁目,国際興業（株）,赤26/26-2,,,1,,,,139.7621356003208,35.78918838495995,東京都
佐野公園,東武バスセントラル（株）,有38,,,1,,,,139.8390955916987,35.7890138150516,東京都
大林組技術研究所,西武バス（株）,"清63,清63-1",,,"1,1",,,,139.53726962925649,35.7889789213011,東京都
花保小学校南,東武バスセントラル（株）,綾24,,,1,,,,139.81740093419324,35.78892157716574,東京都
坊,西武バス（株）,小手03,,,1,,,,139.36864851017384,35.788838805948146,東京都
加賀一丁目,（株）新日本観光自動車,鹿02系統（はるかぜ6号）,,,1,,,,139.76036994163408,35.78883337222675,東京都
青梅消防署前,東京都,梅70,,,2,,,,139.28287848925808,35.788792806931504,東京都
住吉神社前,東京都,"梅70,梅74乙,梅74甲,梅76甲,梅77乙,梅77甲,梅77丁",,,"2,2,2,2,2,2,2",,,,139.26190704911141,35.78869387008682,東京都
住吉神社前,西東京バス（株）,青21,,,1,,,,139.26190704911141,35.78869387008682,東京都
神明南町,東武バスセントラル（株）,"綾61,綾62",,,"1,1",,,,139.82775621456057,35.78870331179955,東京都
水元神社前,東武バスセントラル（株）,"有26,有27,深夜39,有51",,,"1,1,1,1",,,,139.85719675744463,35.78866237737798,東京都
三園一丁目中央,国際興業（株）,増17,,,1,,,,139.64205501021428,35.78862918140359,東京都
北山下橋,国際興業（株）,"増14,増17,増19,高01/01-2",,,"1,1,1,1",,,,139.63757931242296,35.78859206195876,東京都
河辺駅入口,西武バス（株）,"入市32-3,入市32-1,入市32",,,"1,1,1",,,,139.28677926823372,35.78853710503828,東京都
河辺駅入口,東京都,"梅70,梅74乙,梅77甲",,,"2,2,2",,,,139.28677926823372,35.78853710503828,東京都
河辺駅入口,西東京バス（株）,"河11,河10",,,"1,1",,,,139.28677926823372,35.78853710503828,東京都
六月町,東京都,北47,,,2,,,,139.80282741900308,35.788550835351245,東京都
成増厚生病院,国際興業（株）,増17,,,1,,,,139.6405137649375,35.78850830667504,東京都
青梅市役所前,東京都,"梅74乙,梅74甲,梅76甲,梅77丁,梅77丙",,,"2,2,2,2,2",,,,139.27471538118556,35.78849456713401,東京都
地下鉄検車場,国際興業（株）,"池20/20-2,赤56,東練05,浮舟80",,,"1,1,1,1",,,,139.67453854184907,35.78844585574085,東京都
佐野センター前,東武バスセントラル（株）,"有64,有65",,,"1,1",,,,139.84144764978765,35.788403613382414,東京都
青梅新町,西東京バス（株）,"小02,小03",,,"1,1",,,,139.31767171189293,35.7883885216992,東京都
青梅警察署前,東京都,梅70,,,2,,,,139.28924545630065,35.78837857527656,東京都
南花畑一丁目,東武バスセントラル（株）,"北11,六18,六19,綾24,西21,西22,はるかぜ7号（西新井・六木線）",,,"1,1,1,1,1,1,1",,,,139.82213056352577,35.788375293140966,東京都
加賀二丁目,東武バスセントラル（株）,西01,,,1,,,,139.75695473343325,35.78826246279865,東京都
加賀二丁目,（株）新日本観光自動車,鹿02系統（はるかぜ6号）,,,1,,,,139.75695473343325,35.78826246279865,東京都
第三団地東,国際興業（株）,西11,,,1,,,,139.78364540246946,35.78825392258088,東京都
日向和田駅,西東京バス（株）,御11,,,1,,,,139.2294505815163,35.788230889777324,東京都
三園一丁目西,国際興業（株）,増17,,,1,,,,139.63883031522417,35.78803443108004,東京都
鈴法寺跡,東京都,梅70,,,2,,,,139.2957749218465,35.78801517279179,東京都
水元小学校,京成バス（株）,金61,,,1,,,,139.8646851513907,35.78793989463088,東京都
雲風呂,西東京バス（株）,奥14,,,1,,,,139.0140071950451,35.78784704385804,東京都
平松北,西東京バス（株）,"小02,小03",,,"1,1",,,,139.3100834886749,35.78775059094094,東京都
下田,西武バス（株）,"深夜,清62,清64,清64-2",,,"1,1,1,1",,,,139.52406695807667,35.787746876799424,東京都
高島平四丁目,国際興業（株）,高01/01-2,,,1,,,,139.64911189490954,35.7877217812661,東京都
足立工業高校前,東武バスセントラル（株）,"西03,西04",,,"1,1",,,,139.77930051513385,35.78770549934803,東京都
新町天神社前,東京都,梅70,,,2,,,,139.29857720396987,35.787680008535595,東京都
神明障害福祉施設前,朝日自動車（株）,"綾瀬駅〜六ツ木都住〜八潮駅南口,綾瀬駅〜六ツ木都住",,,"1,1",,,,139.8334599524551,35.787690390009885,東京都
三軒家,国際興業（株）,池21,,,1,,,,139.68501867703972,35.78765608531537,東京都
下清戸二丁目,西武バス（株）,"清63,清63-1",,,"1,1",,,,139.53408845943713,35.78763405372268,東京都
なかよし通り,京成バス（株）,金62,,,1,,,,139.8504247751065,35.787625073006375,東京都
なかよし通り,東武バスセントラル（株）,"有26,有27,深夜39",,,"1,1,1",,,,139.8504247751065,35.787625073006375,東京都
滝の上,東京都,"梅01,梅76丙,梅77乙,梅77丙",,,"2,2,2,2",,,,139.25436265243349,35.78760183480745,東京都
西六町,東武バスセントラル（株）,"綾20,綾22",,,"1,1",,,,139.8168360211442,35.787597835352635,東京都
宮の平駅,西東京バス（株）,御11,,,1,,,,139.23781838891205,35.787572890981735,東京都
青梅市役所,西東京バス（株）,急行,,,1,,,,139.2755364507099,35.78751553840942,東京都
ポプラ並木,京成バス（株）,金63,,,1,,,,139.8683932472709,35.78752379428656,東京都
吉野梅林,東京都,"梅01,梅76丙",,,"2,2",,,,139.22318690100045,35.78743997760021,東京都
谷在家一丁目,東京都,里48,,,2,,,,139.7700902114671,35.78740216227881,東京都
谷在家一丁目,東武バスセントラル（株）,西01,,,1,,,,139.7700902114671,35.78740216227881,東京都
辰沼団地入口,東武バスセントラル（株）,"綾21,有29,有38",,,"1,1,1",,,,139.83827792086305,35.787393478501926,東京都
霞町新町,東京都,梅70,,,2,,,,139.30313046121984,35.787260180756626,東京都
霞町新町,西東京バス（株）,"河11,小08",,,"1,1",,,,139.30313046121984,35.787260180756626,東京都
高島平警察署,国際興業（株）,"増17,高01/01-2,東練01,東練01-2,下赤03",,,"1,1,1,1,1",,,,139.65944134626508,35.787203910421205,東京都
辰沼二丁目,朝日自動車（株）,"綾瀬駅〜六ツ木都住〜八潮駅南口,綾瀬駅〜六ツ木都住",,,"1,1",,,,139.83469848240046,35.78707852593724,東京都
六月町,東武バスセントラル（株）,竹14,,,1,,,,139.79774649886429,35.787050326604366,東京都
高島高校,国際興業（株）,"増17,高01/01-2",,,"1,1",,,,139.65278299698207,35.786988052428114,東京都
三園南,国際興業（株）,増17,,,1,,,,139.6437909807449,35.786785412522335,東京都
日村沢,西東京バス（株）,"奥14,奥11,奥10,奥09,奥12",,,"1,1,1,1,1",,,,139.0425320386749,35.786693489301705,東京都
保塚町,東武バスセントラル（株）,"綾40,綾40-2",,,"1,1",,,,139.8106201718786,35.78670759291699,東京都
中原北,西東京バス（株）,"小02,小03",,,"1,1",,,,139.31756789806786,35.78662344733389,東京都
水天宮入口,西武バス（株）,小手03,,,1,,,,139.3656024775913,35.78660399089803,東京都
新町小学校入口,東京都,梅70,,,2,,,,139.30623273448333,35.7865659013532,東京都
千ヶ瀬五丁目,東京都,梅77丙,,,2,,,,139.2654841968566,35.78648535754819,東京都
西台駅,国際興業（株）,"池20/20-2,赤56,東練05,浮舟80",,,"1,1,1,1",,,,139.67417833878713,35.786481959373326,東京都
松山町入口,西武バス（株）,"入市54,入市44,入市54　準急",,,"1,1,1",,,,139.3547512304463,35.78639158193375,東京都
高島平三丁目,板橋区,りんりんGO,,,3,,,,139.65177197856045,35.786361475915236,東京都
高島平三丁目,国際興業（株）,増17,,,1,,,,139.65177197856045,35.786361475915236,東京都
千ヶ瀬四丁目,東京都,梅77丙,,,2,,,,139.2723306829035,35.78631920554278,東京都
大柳,東京都,"梅01,梅76丙,梅77乙,梅77丙",,,"2,2,2,2",,,,139.25230539121006,35.78631387111204,東京都
辰沼一丁目,朝日自動車（株）,"綾瀬駅〜六ツ木都住〜八潮駅南口,綾瀬駅〜六ツ木都住",,,"1,1",,,,139.83599340352293,35.78632889995881,東京都
赤塚四丁目,国際興業（株）,"増14,増17,増19,高01/01-2",,,"1,1,1,1",,,,139.63784043391556,35.7862774599602,東京都
下宿入口,西武バス（株）,"清61,清61-1",,,"1,1",,,,139.54112797759103,35.78626820956266,東京都
西新井三丁目,東武バスセントラル（株）,西07,,,1,,,,139.7830774688864,35.78623552245754,東京都
西新井三丁目,国際興業（株）,赤23/23-3,,,1,,,,139.7830774688864,35.78623552245754,東京都
学校前（奥多摩町）,西東京バス（株）,奥14,,,1,,,,139.01496844695,35.78621016746754,東京都
領家市営住宅,国際興業（株）,川21/21-2/21-3/21-4,,,1,,,,139.75193833909998,35.78617250922975,東京都
第三団地入口,東武バスセントラル（株）,西07,,,1,,,,139.78077044765507,35.78613350773327,東京都
第三団地入口,国際興業（株）,赤23/23-3,,,1,,,,139.78077044765507,35.78613350773327,東京都
都営中清戸住宅東,西武バス（株）,"清63,清63-1",,,"1,1",,,,139.53019882752434,35.786054177647735,東京都
足立工業高校南,東武バスセントラル（株）,西07,,,1,,,,139.777964301732,35.7860503622929,東京都
足立工業高校南,国際興業（株）,赤23/23-3,,,1,,,,139.777964301732,35.7860503622929,東京都
柿の下,西武バス（株）,"深夜,清64-2",,,"1,1",,,,139.52000981841405,35.78603145614929,東京都
都営住宅前,東武バスセントラル（株）,"有26,有27,深夜39,有51",,,"1,1,1,1",,,,139.8556394407747,35.78593139007231,東京都
赤塚公園,国際興業（株）,"増17,高01/01-2,下赤03",,,"1,1,1",,,,139.658918367745,35.785787718034,東京都
二軒家,国際興業（株）,池21,,,1,,,,139.68581895578887,35.78578576758614,東京都
万年橋,東京都,"梅01,梅76丙,梅77乙,梅77丙",,,"2,2,2,2",,,,139.24977206807475,35.78573997368294,東京都
都営住宅,京成バス（株）,金62,,,1,,,,139.85319684604295,35.78569060548137,東京都
鹿浜五丁目団地,（株）新日本観光自動車,鹿02系統（はるかぜ6号）,,,1,,,,139.75650014327138,35.78562333152808,東京都
西新井五丁目,東武バスセントラル（株）,西07,,,1,,,,139.7741460338627,35.785623889114845,東京都
西新井五丁目,国際興業（株）,赤23/23-3,,,1,,,,139.7741460338627,35.785623889114845,東京都
平松,東京都,梅70,,,2,,,,139.3096863799392,35.78551944984218,東京都
平松,西東京バス（株）,"小02,小03",,,"1,1",,,,139.3096863799392,35.78551944984218,東京都
東青梅4丁目,西東京バス（株）,"深夜,小05,青21",,,"1,1,1",,,,139.2794528197523,35.78549255277423,東京都
リブレ京成前,京成バス（株）,金62,,,1,,,,139.85941667749074,35.78550309385416,東京都
千ヶ瀬2丁目,西東京バス（株）,"深夜,小05,青21",,,"1,1,1",,,,139.27293343067166,35.78548543401799,東京都
押部,東京都,里48-2,,,2,,,,139.76320424709326,35.785485244289205,東京都
押部,（株）新日本観光自動車,鹿02系統（はるかぜ6号）,,,1,,,,139.76320424709326,35.785485244289205,東京都
千ヶ瀬,東京都,"梅77乙,梅77丙",,,"2,2",,,,139.2650492707417,35.785465184845485,東京都
千ヶ瀬,西東京バス（株）,青21,,,1,,,,139.2650492707417,35.785465184845485,東京都
東青梅四丁目,東京都,梅77丁,,,2,,,,139.27955503431312,35.78543367376421,東京都
西水元二丁目,京成バス（株）,金62,,,1,,,,139.8507420304305,35.78544037723545,東京都
西水元二丁目,東武バスセントラル（株）,"有26,有27,深夜39",,,"1,1,1",,,,139.8507420304305,35.78544037723545,東京都
鹿浜五丁目,国際興業（株）,"赤23/23-3,川21/21-2/21-3/21-4",,,"1,1",,,,139.74786125086513,35.78542882796394,東京都
高島第二中学校,国際興業（株）,"東練01,東練01-2",,,"1,1",,,,139.6609137564233,35.78540087363367,東京都
六町駅,東武バスセントラル（株）,"北11,北12,六18,六19,五28,綾24,西21,西22,はるかぜ7号（西新井・六木線）",,,"1,1,1,1,1,1,1,1,1",,,,139.82188206390296,35.785366204806095,東京都
北赤羽駅入口,国際興業（株）,"赤01/01-2/85,赤02,赤83,赤84",,,"1,1,1,1",,,,139.70700455214308,35.78535360706268,東京都
水元四丁目,京成バス（株）,金61,,,1,,,,139.8653437860621,35.7853383171891,東京都
鹿浜中学校前,東武バスセントラル（株）,西01,,,1,,,,139.7564412717178,35.785291149176224,東京都
北加平,東武バスセントラル（株）,"綾61,綾62",,,"1,1",,,,139.82681278171458,35.78520846278332,東京都
水元二丁目,京成バス（株）,金62,,,1,,,,139.8558983285978,35.78518121697733,東京都
いかづち公園前,国際興業（株）,西11,,,1,,,,139.78361413039732,35.785177606333605,東京都
辰沼団地,朝日自動車（株）,"綾瀬駅〜六ツ木都住〜八潮駅南口,綾瀬駅〜六ツ木都住",,,"1,1",,,,139.83638118397909,35.78517210439086,東京都
平野町,東京都,北47,,,2,,,,139.8029375290098,35.785165656972914,東京都
谷在家二丁目,東京都,里48,,,2,,,,139.77005669790313,35.78495772633179,東京都
谷在家二丁目,東武バスセントラル（株）,西01,,,1,,,,139.77005669790313,35.78495772633179,東京都
谷在家二丁目,国際興業（株）,赤23/23-3,,,1,,,,139.77005669790313,35.78495772633179,東京都
新町4丁目,西東京バス（株）,"河11,小08",,,"1,1",,,,139.30309082538975,35.78491628655222,東京都
中里団地,西武バス（株）,清66,,,1,,,,139.51418143984245,35.78489479930072,東京都
中里四丁目,西武バス（株）,"深夜,清64-2",,,"1,1",,,,139.51685620399022,35.78488791794162,東京都
下郷,東京都,"梅01,梅76丙",,,"2,2",,,,139.22528802044633,35.78487084847092,東京都
鹿浜六丁目,国際興業（株）,赤26/26-2,,,1,,,,139.7612911142013,35.784810550050466,東京都
高島平二丁目,国際興業（株）,"東練01,東練01-2",,,"1,1",,,,139.66408681867088,35.78477048950186,東京都
清瀬市役所,西武バス（株）,"清62,清63,清63-1,清64",,,"1,1,1,1",,,,139.52688414070832,35.78475677454704,東京都
東京北医療センター,国際興業（株）,赤58,,,1,,,,139.71109063256128,35.78474016405616,東京都
湯場,西東京バス（株）,"奥14,奥11,奥10,奥09,奥12",,,"1,1,1,1,1",,,,139.03331389232304,35.78471611265636,東京都
谷在家,東武バスセントラル（株）,西07,,,1,,,,139.76913512525815,35.78470745272015,東京都
島根二丁目,東武バスセントラル（株）,竹14,,,1,,,,139.79770131303502,35.784708361958224,東京都
河辺駅北口,西武バス（株）,"入市32-3,入市32-1,入市32",,,"1,1,1",,,,139.2852109305339,35.78457476102923,東京都
河辺駅北口,東京都,"梅74乙,梅77甲",,,"2,2",,,,139.2852109305339,35.78457476102923,東京都
河辺駅北口,西東京バス（株）,"急行,河11,河10",,,"1,1,1",,,,139.2852109305339,35.78457476102923,東京都
区立美術館,国際興業（株）,増17,,,1,,,,139.6446109723634,35.78458240075572,東京都
博慈会記念総合病院,（株）新日本観光自動車,椿04系統（はるかぜ11号）,,,1,,,,139.74990691458729,35.784578475962455,東京都
足立郷土博物館,東武バスセントラル（株）,"有64,有65",,,"1,1",,,,139.84217547525182,35.78454191057011,東京都
蓮根二丁目,国際興業（株）,"池20/20-2,赤56,東練05,浮舟80",,,"1,1,1,1",,,,139.67392731243964,35.784482205366906,東京都
畑川原,西武バス（株）,"深夜,清64-2",,,"1,1",,,,139.51520496152068,35.784445435959725,東京都
宮の台住宅,西武バス（株）,"清62,清63,清63-1",,,"1,1,1",,,,139.52608060713874,35.784415134309924,東京都
一ツ家一丁目,東武バスセントラル（株）,"綾40,綾40-2",,,"1,1",,,,139.8107002475073,35.7843953533412,東京都
東淵江庭園,東武バスセントラル（株）,"綾21,有29,有38",,,"1,1,1",,,,139.83912932629403,35.784393595288456,東京都
栗原四丁目,東武バスセントラル（株）,西02,,,1,,,,139.7858539733333,35.784389155440195,東京都
加平小学校南,東武バスセントラル（株）,"綾24,西21,西22,はるかぜ7号（西新井・六木線）",,,"1,1,1,1",,,,139.8190748304906,35.78432073976417,東京都
赤塚高速下,板橋区,りんりんGO,,,3,,,,139.65304416564584,35.78429646892414,東京都
下清戸,西武バス（株）,"清61,清61-1",,,"1,1",,,,139.5374506858706,35.784270928784316,東京都
熱海,西東京バス（株）,"奥14,奥11,奥10,奥09,奥12",,,"1,1,1,1,1",,,,139.0415834413859,35.78424004583175,東京都
高根,西武バス（株）,小手03,,,1,,,,139.36106797634642,35.784215818759556,東京都
総合病院入口（青梅市）,西東京バス（株）,"深夜,小05,青21",,,"1,1,1",,,,139.28184986273925,35.78410889581566,東京都
河辺駅南口,西武バス（株）,飯41,,,1,,,,139.28448489662858,35.7840839691194,東京都
河辺駅南口,東京都,梅77丁,,,2,,,,139.28448489662858,35.7840839691194,東京都
河辺駅南口,西東京バス（株）,"急行,深夜,小05,青21",,,"1,1,1,1",,,,139.28448489662858,35.7840839691194,東京都
鹿浜,東武バスセントラル（株）,"西05,西06,西07,はるかぜ4号（区役所・鹿浜線）",,,"1,1,1,1",,,,139.75028439367122,35.7840866146578,東京都
鹿浜,国際興業（株）,"赤23/23-3,川21/21-2/21-3/21-4",,,"1,1",,,,139.75028439367122,35.7840866146578,東京都
倉戸口,西東京バス（株）,"奥14,奥11,奥10,奥09,奥12",,,"1,1,1,1,1",,,,139.04462325876585,35.784034882947175,東京都
師団坂通り,国際興業（株）,赤58,,,1,,,,139.71484506027596,35.78402092571065,東京都
大門竹の子公園,板橋区,りんりんGO,,,3,,,,139.64846454692426,35.78399173936019,東京都
大門竹の子公園,国際興業（株）,増17,,,1,,,,139.64846454692426,35.78399173936019,東京都
赤羽台高台,国際興業（株）,赤58,,,1,,,,139.71324297199354,35.783993110815324,東京都
畑中一丁目,東京都,"梅01,梅76丙",,,"2,2",,,,139.24770451909544,35.78397871708178,東京都
水元大橋・噴水広場,京成バス（株）,金63,,,1,,,,139.86918467467092,35.78398623998429,東京都
畑中下西,東京都,"梅01,梅76丙",,,"2,2",,,,139.24574972179525,35.783916185143255,東京都
瑞光橋,東武バスウエスト（株）,"増07,増09",,,"1,1",,,,139.6288751899191,35.7839261139831,東京都
産業道路東,東武バスセントラル（株）,"西05,西06,西07,はるかぜ4号（区役所・鹿浜線）",,,"1,1,1,1",,,,139.7519820181145,35.783881987267776,東京都
産業道路東,国際興業（株）,赤23/23-3,,,1,,,,139.7519820181145,35.783881987267776,東京都
新田山公園,東京都,梅70,,,2,,,,139.31484600269,35.78385313069751,東京都
成増四丁目,国際興業（株）,"増14,増17,増19,高01/01-2",,,"1,1,1,1",,,,139.638010485551,35.78384863420233,東京都
西水元一丁目,東武バスセントラル（株）,"有26,有27,深夜39",,,"1,1,1",,,,139.8509809412775,35.783838654297654,東京都
辰沼小学校入口,朝日自動車（株）,"綾瀬駅〜六ツ木都住〜八潮駅南口,綾瀬駅〜六ツ木都住",,,"1,1",,,,139.83668092518607,35.78366868757062,東京都
第二団地西通り,東武バスセントラル（株）,"西03,西04",,,"1,1",,,,139.77923678652556,35.7836620746477,東京都
北鹿浜小南,東武バスセントラル（株）,"西05,西06,はるかぜ4号（区役所・鹿浜線）",,,"1,1,1",,,,139.75431764140907,35.78360183784184,東京都
区境,国際興業（株）,"赤01/01-2/85,赤02,赤83,赤84",,,"1,1,1,1",,,,139.70293741451522,35.78358546830604,東京都
谷在家公園,東武バスセントラル（株）,西07,,,1,,,,139.76399952640583,35.783568278977974,東京都
都営住宅,東武バスセントラル（株）,"綾20,綾22,綾24,西21,西22,はるかぜ7号（西新井・六木線）",,,"1,1,1,1,1,1",,,,139.81621121197833,35.78337581417598,東京都
駒木町三丁目,東京都,"梅77乙,梅77丙",,,"2,2",,,,139.25015564360672,35.78335468957911,東京都
鹿浜四丁目北,東武バスセントラル（株）,"西05,西06,西07,はるかぜ4号（区役所・鹿浜線）",,,"1,1,1,1",,,,139.7565254993451,35.78333973454902,東京都
鹿浜四丁目北,国際興業（株）,赤23/23-3,,,1,,,,139.7565254993451,35.78333973454902,東京都
坂本,西東京バス（株）,奥14,,,1,,,,139.01571554736097,35.783310178293696,東京都
瑞穂バイパス南,西武バス（株）,"入市54,入市44,入市54　準急",,,"1,1,1",,,,139.3533900960128,35.78328662065724,東京都
東京北医療センター入口,国際興業（株）,"赤01/01-2/85,赤02,赤83,赤84",,,"1,1,1,1",,,,139.7099896500606,35.78326980195017,東京都
東京北部病院前,東京都,里48-2,,,2,,,,139.76516943337086,35.78322585393837,東京都
東京北部病院前,東武バスセントラル（株）,"西05,西06,はるかぜ4号（区役所・鹿浜線）",,,"1,1,1",,,,139.76516943337086,35.78322585393837,東京都
東京北部病院前,（株）新日本観光自動車,鹿02系統（はるかぜ6号）,,,1,,,,139.76516943337086,35.78322585393837,東京都
東京北部病院,国際興業（株）,赤23/23-3,,,1,,,,139.76559800614285,35.78321059015787,東京都
東坂下二丁目,国際興業（株）,池21,,,1,,,,139.68787860400948,35.783208057164835,東京都
中原,東京都,梅70,,,2,,,,139.3173458137449,35.783186338384624,東京都
中原,西東京バス（株）,"羽31,小02,小03,羽33",,,"1,1,1,1",,,,139.3173458137449,35.783186338384624,東京都
畑中神社前,東京都,"梅01,梅76丙",,,"2,2",,,,139.24294638080696,35.783174844301044,東京都
鹿浜センター南,東武バスセントラル（株）,"西05,西06,はるかぜ4号（区役所・鹿浜線）",,,"1,1,1",,,,139.75955744740662,35.78311459756825,東京都
赤羽岩淵駅,国際興業（株）,"赤20/20-2,赤23/23-3",,,"1,1",,,,139.71990132404434,35.78309509592622,東京都
出野,西東京バス（株）,"奥14,奥11,奥10,奥09,奥12",,,"1,1,1,1,1",,,,139.03604825171303,35.78307567712541,東京都
鹿浜十字路,東武バスセントラル（株）,"西05,西06,西07,はるかぜ4号（区役所・鹿浜線）",,,"1,1,1,1",,,,139.76098842994338,35.78307797588908,東京都
鹿浜十字路,国際興業（株）,赤23/23-3,,,1,,,,139.76098842994338,35.78307797588908,東京都
江北七丁目,東武バスセントラル（株）,"西05,西06,はるかぜ4号（区役所・鹿浜線）",,,"1,1,1",,,,139.7623072001509,35.78304968333758,東京都
平松南,西東京バス（株）,"小02,小03",,,"1,1",,,,139.30826631019008,35.782981926571566,東京都
西新井大師西駅,東武バスセントラル（株）,"西01,西05,西06,はるかぜ4号（区役所・鹿浜線）",,,"1,1,1,1",,,,139.77011288311735,35.78297685750037,東京都
西新井大師西駅,国際興業（株）,赤23/23-3,,,1,,,,139.77011288311735,35.78297685750037,東京都
水元中学校,京成バス（株）,金61,,,1,,,,139.86597991314034,35.78293115603814,東京都
高島六の橋,国際興業（株）,"東練01,東練01-2",,,"1,1",,,,139.66592948341554,35.78290800650839,東京都
西新井中学校前,東武バスセントラル（株）,"西05,西06,はるかぜ4号（区役所・鹿浜線）",,,"1,1,1",,,,139.772222697392,35.78288776369902,東京都
産業道路,（株）新日本観光自動車,椿04系統（はるかぜ11号）,,,1,,,,139.7512757270966,35.78286098763697,東京都
鹿浜都市農業公園,東武バスセントラル（株）,"西05,西06,西07,はるかぜ4号（区役所・鹿浜線）",,,"1,1,1,1",,,,139.7464114588418,35.78284608261622,東京都
岩淵町,東京都,王57,,,2,,,,139.72527920960198,35.78283167691682,東京都
区立美術館入口,板橋区,りんりんGO,,,3,,,,139.6450451592622,35.78279680516002,東京都
水野病院前,東武バスセントラル（株）,"西05,西06,はるかぜ4号（区役所・鹿浜線）",,,"1,1,1",,,,139.7746124955055,35.78280035405107,東京都
水元特別支援学校,東武バスセントラル（株）,"有26,有27,深夜39,有51",,,"1,1,1,1",,,,139.85381103836434,35.78276517978159,東京都
島根町,東京都,北47,,,2,,,,139.80300872500663,35.78274620464614,東京都
平野住区センター,東武バスセントラル（株）,"西21,西22,はるかぜ7号（西新井・六木線）",,,"1,1,1",,,,139.80475719107918,35.78273624743967,東京都
総合病院前,西武バス（株）,飯41,,,1,,,,139.28195989792482,35.78272045575375,東京都
総合病院前,東京都,梅77丁,,,2,,,,139.28195989792482,35.78272045575375,東京都
北鹿浜公園入口,東武バスセントラル（株）,西01,,,1,,,,139.75604639891034,35.78272590599045,東京都
北団地,国際興業（株）,"赤54,赤54-2",,,"1,1",,,,139.7095330359876,35.7827123731468,東京都
平野小学校,東武バスセントラル（株）,"西21,西22,はるかぜ7号（西新井・六木線）",,,"1,1,1",,,,139.80879074552357,35.78270856892595,東京都
大谷田五丁目,東武バスセントラル（株）,"綾21,有29,有38",,,"1,1,1",,,,139.83933435644389,35.782708816601705,東京都
一ツ家第三公園入口,東武バスセントラル（株）,"西21,西22,はるかぜ7号（西新井・六木線）",,,"1,1,1",,,,139.81547296336882,35.782700326908405,東京都
都営住宅南,東武バスセントラル（株）,"西21,西22,はるかぜ7号（西新井・六木線）",,,"1,1,1",,,,139.8113833074473,35.78267222237313,東京都
ふれあいの家,京成バス（株）,金62,,,1,,,,139.86044667491265,35.782654044704344,東京都
西新井六丁目,東武バスセントラル（株）,"西05,西06,はるかぜ4号（区役所・鹿浜線）",,,"1,1,1",,,,139.77837328955266,35.78264299801482,東京都
西台中学校,国際興業（株）,"池20/20-2,赤56,東練05,浮舟80",,,"1,1,1,1",,,,139.67367100382032,35.78263298829807,東京都
郷土博物館入口,東京都,"梅77乙,梅77丙",,,"2,2",,,,139.2552178871105,35.78260242098094,東京都
長渕七丁目,東京都,"梅77乙,梅77丙",,,"2,2",,,,139.26283207969706,35.782600997497894,東京都
中島根小学校,東武バスセントラル（株）,"西21,西22,はるかぜ7号（西新井・六木線）",,,"1,1,1",,,,139.80054115806593,35.782598106628065,東京都
第二団地,東武バスセントラル（株）,"西03,西04,西05,西06,はるかぜ4号（区役所・鹿浜線）",,,"1,1,1,1,1",,,,139.78080947168405,35.78257364266002,東京都
女の湯,西東京バス（株）,"奥14,奥11,奥10,奥09,奥12",,,"1,1,1,1,1",,,,139.02835844394772,35.78254374025653,東京都
江北六丁目団地前,東京都,里48,,,2,,,,139.7701287321207,35.782549132139394,東京都
赤羽二丁目,東京都,王57,,,2,,,,139.72249556070676,35.78254636818514,東京都
島根住区センター,東武バスセントラル（株）,"西21,西22,はるかぜ7号（西新井・六木線）",,,"1,1,1",,,,139.7957690614803,35.78242161741728,東京都
水元総合スポーツセンター,京成バス（株）,金62,,,1,,,,139.85793546682814,35.782422154518756,東京都
水元総合スポーツセンター,東武バスセントラル（株）,"有36,綾37",,,"1,1",,,,139.85793546682814,35.782422154518756,東京都
駒木町,東京都,"梅77乙,梅77丙",,,"2,2",,,,139.25857725703358,35.78240559768111,東京都
上長渕,西東京バス（株）,青21,,,1,,,,139.26381531369938,35.78239883285228,東京都
栗原立体交差東口,東武バスセントラル（株）,"西05,西06,はるかぜ4号（区役所・鹿浜線）,はるかぜ7号（西新井・六木線）",,,"1,1,1,1",,,,139.7901420303865,35.78234034776692,東京都
新町9丁目,西東京バス（株）,"羽31,羽33",,,"1,1",,,,139.32084665980457,35.78223072064085,東京都
中里（清瀬市）,西武バス（株）,"深夜,清66,清64-2",,,"1,1,1",,,,139.51571519699948,35.78217379315401,東京都
赤羽台坂下,国際興業（株）,"赤01/01-2/85,赤02,赤58,赤83,赤84",,,"1,1,1,1,1",,,,139.71746988087318,35.78214184909627,東京都
けやき通り,西武バス（株）,"清62,清63,清63-1",,,"1,1,1",,,,139.52249706934515,35.78212229232888,東京都
大谷田二丁目,東武バスセントラル（株）,"綾34,綾35",,,"1,1",,,,139.84625522113708,35.78211641053594,東京都
一ツ家二丁目,東武バスセントラル（株）,"綾40,綾40-2",,,"1,1",,,,139.81081448648504,35.782107278632076,東京都
成増北口通り,東武バスウエスト（株）,"増07,増09",,,"1,1",,,,139.629818755999,35.782093359326474,東京都
桐ヶ丘二丁目,国際興業（株）,"赤54,赤54-2",,,"1,1",,,,139.71145289072246,35.78205891419587,東京都
畑中公会堂前,東京都,"梅01,梅76丙",,,"2,2",,,,139.24023440127203,35.781979113304786,東京都
桐ヶ丘高校,国際興業（株）,"赤54,赤54-2",,,"1,1",,,,139.7067335546919,35.781913273090204,東京都
中清戸東,西武バス（株）,"清61-2,清61,清61-1",,,"1,1,1",,,,139.53389558580045,35.78187787133875,東京都
島根三丁目（北）,東武バスセントラル（株）,竹14,,,1,,,,139.7976667067231,35.781773962154084,東京都
長渕4丁目,西東京バス（株）,"深夜,小05,青21",,,"1,1,1",,,,139.27266690789236,35.78174115892322,東京都
第四小学校西,清瀬市,"清瀬駅北口発清瀬駅南口行（緑蔭通り経由）,清瀬駅北口発清瀬駅南口行（志木街道経由）,清瀬駅南口発清瀬駅北口行（緑蔭通り経由）,清瀬駅南口発清瀬駅北口行（志木街道経由）",,,"3,3,3,3",,,,139.5083969723125,35.781737288036595,東京都
坂下二丁目,国際興業（株）,池20/20-2,,,1,,,,139.68456391644224,35.78172457083616,東京都
水元飯塚公園前,東武バスセントラル（株）,"有26,有27,深夜39",,,"1,1,1",,,,139.85128735948834,35.78172839120093,東京都
高須,東武バスセントラル（株）,"金52,金54",,,"1,1",,,,139.88127537138436,35.78170856295603,東京都
徳丸八丁目,国際興業（株）,下赤03,,,1,,,,139.6565089670052,35.781640735931866,東京都
第一団地（足立区）,東武バスセントラル（株）,"西03,西04,西07",,,"1,1,1",,,,139.78356649257123,35.781644395579356,東京都
第一団地,国際興業（株）,"赤23/23-3,西11",,,"1,1",,,,139.78356010609102,35.78159606753667,東京都
坂本園地,西東京バス（株）,"奥14,奥11,奥10,奥09,奥12",,,"1,1,1,1,1",,,,139.0211896631842,35.78157826371991,東京都
稲荷神社前,東京都,"梅01,梅76丙",,,"2,2",,,,139.2271488524304,35.78155569650283,東京都
大谷田三丁目,東武バスセントラル（株）,有29,,,1,,,,139.84136811759922,35.78156091737607,東京都
谷中五丁目,朝日自動車（株）,"綾瀬駅〜六ツ木都住〜八潮駅南口,綾瀬駅〜六ツ木都住",,,"1,1",,,,139.8369823498368,35.78155173977489,東京都
誠明学園,西東京バス（株）,"河11,小08",,,"1,1",,,,139.3030581696979,35.78153501240502,東京都
西長岡,東京都,梅70,,,2,,,,139.3236678355313,35.78145950327638,東京都
足立東高校前,東武バスセントラル（株）,"綾34,綾35",,,"1,1",,,,139.8445842571834,35.78147260488571,東京都
谷中三郵便局前,朝日自動車（株）,"綾瀬駅〜六ツ木都住〜八潮駅南口,綾瀬駅〜六ツ木都住",,,"1,1",,,,139.8339600901918,35.78145063209366,東京都
八幡小学校北,国際興業（株）,"赤01/01-2/85,赤02,赤54,赤54-1,赤54-2,赤83,赤84,赤96",,,"1,1,1,1,1,1,1,1",,,,139.71347051367198,35.78139101903475,東京都
野塩団地,清瀬市,"清瀬駅北口発清瀬駅南口行（緑蔭通り経由）,清瀬駅北口発清瀬駅南口行（志木街道経由）,清瀬駅南口発清瀬駅北口行（緑蔭通り経由）,清瀬駅南口発清瀬駅北口行（志木街道経由）",,,"3,3,3,3",,,,139.50148367553408,35.78135828553809,東京都
中郷,西東京バス（株）,青21,,,1,,,,139.26771409694865,35.78134714906623,東京都
新町東,西東京バス（株）,"羽31,小02,小03,羽33",,,"1,1,1,1",,,,139.31650206290368,35.78127875596065,東京都
小豆沢公園,国際興業（株）,"赤01/01-2/85,赤02,赤83,赤84",,,"1,1,1,1",,,,139.69852810373467,35.781270713504036,東京都
水元公園内溜,京成バス（株）,金63,,,1,,,,139.8675826265829,35.78122860361114,東京都
六町一丁目,東武バスセントラル（株）,"北11,北12,五28",,,"1,1,1",,,,139.8214386216613,35.78120169024328,東京都
四葉二丁目,板橋区,りんりんGO,,,3,,,,139.65246403615654,35.78118629901821,東京都
水元総合スポーツセンター入口,京成バス（株）,金62,,,1,,,,139.86066169579107,35.78114425866967,東京都
はなしょうぶ園,京成バス（株）,金63,,,1,,,,139.8703099491813,35.7811349716199,東京都
あずまい,西東京バス（株）,"奥14,奥11,奥10,奥09,奥12",,,"1,1,1,1,1",,,,139.02473519614034,35.78111242562758,東京都
志茂二丁目,東京都,王57,,,2,,,,139.72965026844128,35.78107735392229,東京都
谷中三丁目,東武バスセントラル（株）,綾21,,,1,,,,139.8369037580661,35.78108013392132,東京都
大谷橋,国際興業（株）,池20/20-2,,,1,,,,139.6819702857138,35.781069569072166,東京都
大東文化大学,国際興業（株）,"赤02,赤02-2,赤84",,,"1,1,1",,,,139.6696664190033,35.78106584800034,東京都
椿二丁目北,国際興業（株）,赤26/26-2,,,1,,,,139.76081602221356,35.78106238462371,東京都
上赤塚交番,国際興業（株）,"増14,増17,増19,高01/01-2",,,"1,1,1,1",,,,139.63846552472273,35.78098681970143,東京都
飯塚橋,東武バスセントラル（株）,"有26,有27,深夜39,有51",,,"1,1,1,1",,,,139.85286476187042,35.78098071188405,東京都
小豆沢通り,国際興業（株）,"赤01/01-2/85,赤02,赤83,赤84",,,"1,1,1,1",,,,139.69647188601803,35.78095571728251,東京都
中清戸,西武バス（株）,清64,,,1,,,,139.52948631139117,35.78078513288796,東京都
鹿浜四丁目,東武バスセントラル（株）,西01,,,1,,,,139.75586426509673,35.7806708854765,東京都
鹿浜菜の花中学校入口,東京都,里48-2,,,2,,,,139.76512426239637,35.780587841287705,東京都
鹿浜菜の花中学校入口＜旧上沼田小学校入口＞,（株）新日本観光自動車,鹿02系統（はるかぜ6号）,,,1,,,,139.76512426239637,35.780587841287705,東京都
末広二丁目西,西東京バス（株）,"小02,小03",,,"1,1",,,,139.3070670497723,35.78055050992905,東京都
蓮根一丁目,国際興業（株）,"池20/20-2,赤02,赤02-2,赤84",,,"1,1,1,1",,,,139.67988216221354,35.780547620877066,東京都
四葉町,国際興業（株）,"赤02,赤02-2,下赤03",,,"1,1,1",,,,139.65125915707637,35.78052886565415,東京都
水元三丁目,京成バス（株）,金62,,,1,,,,139.86269935391985,35.78052598854384,東京都
葛飾車庫入口,東武バスセントラル（株）,"有26,有27,深夜39",,,"1,1,1",,,,139.85145876570436,35.78050578318311,東京都
赤羽台三丁目,国際興業（株）,"赤01/01-2/85,赤02,赤58,赤83,赤84",,,"1,1,1,1,1",,,,139.71483402904425,35.780499531486285,東京都
小作台二丁目,羽村市,小作コース：内廻り,,,3,,,,139.2986310629975,35.78044585632561,東京都
東金町運動場入口,東武バスセントラル（株）,"金50,金54",,,"1,1",,,,139.88506990758876,35.78045004814461,東京都
富士山,西武バス（株）,小手03,,,1,,,,139.35459233117547,35.7803908422275,東京都
徳丸七丁目,国際興業（株）,"赤02,赤02-2",,,"1,1",,,,139.6638119736502,35.780392445449756,東京都
水元公園,京成バス（株）,"金61,金62",,,"1,1",,,,139.86730988721166,35.780394838581806,東京都
駒形富士山,西武バス（株）,"入市54,入市44,入市54　準急",,,"1,1,1",,,,139.3527366654256,35.78035665435494,東京都
西台交差点,国際興業（株）,"池20/20-2,赤02,赤02-2,赤84",,,"1,1,1,1",,,,139.674895126981,35.78036276207469,東京都
鹿浜西小学校入り口,（株）新日本観光自動車,椿04系統（はるかぜ11号）,,,1,,,,139.75112331822905,35.78035799045707,東京都
徳丸西,板橋区,りんりんGO,,,3,,,,139.65471415537178,35.780343935415694,東京都
徳丸西,国際興業（株）,"赤02,赤02-2,下赤03",,,"1,1,1",,,,139.65471415537178,35.780343935415694,東京都
明治薬科大学,清瀬市,"清瀬駅北口発清瀬駅南口行（緑蔭通り経由）,清瀬駅北口発清瀬駅南口行（志木街道経由）,清瀬駅南口発清瀬駅北口行（緑蔭通り経由）,清瀬駅南口発清瀬駅北口行（志木街道経由）",,,"3,3,3,3",,,,139.5056919381536,35.78029574099314,東京都
誠明学園南,西東京バス（株）,"小02,小03,河11",,,"1,1,1",,,,139.30469197195092,35.78028186769583,東京都
畑中三丁目,東京都,"梅01,梅76丙",,,"2,2",,,,139.2375118381622,35.78025927881141,東京都
志村健康福祉センター入口,国際興業（株）,"池20/20-2,赤02,赤02-2,赤84",,,"1,1,1,1",,,,139.67735962635817,35.78024285576912,東京都
ギャラクシティ,東武バスセントラル（株）,"西05,西06,西21,西22,はるかぜ4号（区役所・鹿浜線）,はるかぜ7号（西新井・六木線）",,,"1,1,1,1,1,1",,,,139.7914172833291,35.780246174672115,東京都
南水元,東武バスセントラル（株）,"有36,綾37",,,"1,1",,,,139.85941179986426,35.78020079860022,東京都
志村坂下,国際興業（株）,"池21,赤01/01-2/85,赤02,赤83,赤84",,,"1,1,1,1,1",,,,139.69090346703626,35.780113221004825,東京都
青梅新町境,西東京バス（株）,"羽31,羽33",,,"1,1",,,,139.32347650811496,35.780088822343586,東京都
峰谷橋,西東京バス（株）,"奥14,奥11,奥10,奥09,奥12",,,"1,1,1,1,1",,,,139.01612798575667,35.78007162824015,東京都
中川小学校前,東武バスセントラル（株）,"有29,綾34,綾35,有64,有65",,,"1,1,1,1,1",,,,139.84297080886506,35.78008611958075,東京都
大谷田四丁目,東武バスセントラル（株）,有38,,,1,,,,139.8395383016186,35.780061942689194,東京都
水産試験場跡,京成バス（株）,金63,,,1,,,,139.8769904013971,35.78004277981651,東京都
松浦の鐘,京成バス（株）,金63,,,1,,,,139.87371809911062,35.77997813552099,東京都
つるつる温泉,西東京バス（株）,五20,,,1,,,,139.19253863208004,35.77994216168233,東京都
赤塚八丁目,国際興業（株）,"赤02,赤02-2,下赤03",,,"1,1,1",,,,139.64722617711078,35.7799455489628,東京都
和田町会館前,東京都,"梅01,梅76丙",,,"2,2",,,,139.22963998398657,35.779930274606414,東京都
栗原三丁目,東武バスセントラル（株）,西02,,,1,,,,139.7849981038022,35.77994018843242,東京都
江北六丁目団地入口,東京都,里48,,,2,,,,139.7701791105668,35.779918897564535,東京都
葛飾清掃工場,東武バスセントラル（株）,"有36,綾37",,,"1,1",,,,139.85625481563133,35.77991390648483,東京都
グリーンタウン清戸,西武バス（株）,"清61-2,清61,清61-1",,,"1,1,1",,,,139.53470797616055,35.77989009437724,東京都
加平二丁目,東武バスセントラル（株）,"綾61,綾62",,,"1,1",,,,139.82642658637675,35.779894383856345,東京都
体育館,国際興業（株）,"赤54-1,赤54-2,赤96",,,"1,1,1",,,,139.71141461781642,35.77973454427314,東京都
青梅第二小学校,西東京バス（株）,青21,,,1,,,,139.2710310217626,35.77970635433277,東京都
赤羽北三丁目,国際興業（株）,"赤54,赤54-1,赤54-2,赤96",,,"1,1,1,1",,,,139.70347137293209,35.7796690893575,東京都
長岡,東京都,梅70,,,2,,,,139.3288788399284,35.77964958091306,東京都
長岡,立川バス（株）,"羽12-1,羽17",,,"1,1",,,,139.3288788399284,35.77964958091306,東京都
紅梅小学校,国際興業（株）,"赤02,赤02-2",,,"1,1",,,,139.6581227836979,35.77964074046046,東京都
江北六丁目団地,東武バスセントラル（株）,西01,,,1,,,,139.77019301553943,35.779485617260235,東京都
葛飾車庫,東武バスセントラル（株）,"綾23,有25,有26,有27,深夜39",,,"1,1,1,1,1",,,,139.85206124639475,35.77947786920804,東京都
水天宮前（清瀬市）,西武バス（株）,清64,,,1,,,,139.5265352231448,35.779467455322504,東京都
末広公園,西東京バス（株）,"小02,小03,河11,小12",,,"1,1,1,1",,,,139.30808201092125,35.77937345063973,東京都
東金町七丁目,東武バスセントラル（株）,"金50,金54",,,"1,1",,,,139.8851738272972,35.77935353425753,東京都
桐ヶ丘一丁目,国際興業（株）,"赤54-1,赤54-2,赤96",,,"1,1,1",,,,139.70857320168946,35.77930758185905,東京都
麦山橋,西東京バス（株）,"奥11,奥10,奥09,奥12",,,"1,1,1,1",,,,139.00875415345288,35.779265847003416,東京都
赤塚高台,国際興業（株）,"赤02,赤02-2,増14,増17,増19,高01/01-2",,,"1,1,1,1,1,1",,,,139.63723818095696,35.77923257989473,東京都
明治橋,東京都,"梅01,梅76丙",,,"2,2",,,,139.23359464879636,35.77917523080916,東京都
赤羽駅東口,東京都,王57,,,2,,,,139.7213673841412,35.77915994969406,東京都
赤羽駅東口,関東バス（株）・国際興業（株）,赤31,,,1,,,,139.7213673841412,35.77915994969406,東京都
赤羽駅東口,国際興業（株）,"赤20/20-2,赤23/23-3,赤25/25-2/25-3,赤26/26-2,赤27,赤27-3,赤27H,赤95",,,"1,1,1,1,1,1,1,1",,,,139.7213673841412,35.77915994969406,東京都
成増坂上,東武バスウエスト（株）,"増07,増09",,,"1,1",,,,139.63084123177256,35.77912993724853,東京都
法善寺交番,国際興業（株）,"赤50,赤51,赤53,赤54,赤54-1,赤56,赤56-2,赤56-3,赤57,赤57-2,赤80-2",,,"1,1,1,1,1,1,1,1,1,1,1",,,,139.71370887947117,35.77911387875242,東京都
志村四小,国際興業（株）,"赤54,赤54-1,赤56,赤56-2,赤56-3,赤96",,,"1,1,1,1,1,1",,,,139.7017212500313,35.7790952446671,東京都
成増二丁目,西武バス（株）,"練42,練40,吉60,石11,増72,泉34,泉33,【泉33】深夜",,,"1,1,1,1,1,1,1,1",,,,139.62640910741797,35.77907540656662,東京都
成増二丁目,国際興業（株）・西武バス（株）,石02・増16/16-2,,,1,,,,139.62640910741797,35.77907540656662,東京都
中島根,東武バスセントラル（株）,竹14,,,1,,,,139.79765709054146,35.779042318375495,東京都
コミュニティプラザひまわり入口,西武バス（株）,"清61-2,清61,清61-1",,,"1,1,1",,,,139.53614927460316,35.779027721306704,東京都
第四中学校東,清瀬市,"清瀬駅北口発清瀬駅南口行（緑蔭通り経由）,清瀬駅北口発清瀬駅南口行（志木街道経由）,清瀬駅南口発清瀬駅北口行（緑蔭通り経由）,清瀬駅南口発清瀬駅北口行（志木街道経由）",,,"3,3,3,3",,,,139.50961327644129,35.779016551126745,東京都
加平町,東武バスセントラル（株）,"北11,北12,五28",,,"1,1,1",,,,139.82035850904194,35.77890472227085,東京都
志村三丁目駅,国際興業（株）,"池20/20-2,赤01/01-2/85,赤02,赤02-2,赤56-2,赤83,赤84,常01",,,"1,1,1,1,1,1,1,1",,,,139.6860291762506,35.778853834155235,東京都
相生橋,国際興業（株）,"赤02,赤02-2,赤84",,,"1,1,1",,,,139.6810540553864,35.77885286511748,東京都
谷中中学校入口,朝日自動車（株）,"綾瀬駅〜六ツ木都住〜八潮駅南口,綾瀬駅〜六ツ木都住",,,"1,1",,,,139.83386878389513,35.77883929664896,東京都
赤塚庁舎,国際興業（株）,"赤02,赤02-2",,,"1,1",,,,139.6443286881083,35.77882505447064,東京都
西新井車庫,東武バスセントラル（株）,"西03,西04,西07",,,"1,1,1",,,,139.78252030502438,35.77876469101507,東京都
西新井車庫,国際興業（株）,"赤23/23-3,西11",,,"1,1",,,,139.78252030502438,35.77876469101507,東京都
第四都営住宅,西武バス（株）,"深夜,清66,清64-2",,,"1,1,1",,,,139.51639624812134,35.77874813516416,東京都
鹿浜橋,東京都,王49,,,2,,,,139.74945573934235,35.77874677083955,東京都
鹿浜橋,東武バスセントラル（株）,王30,,,1,,,,139.74945573934235,35.77874677083955,東京都
鹿浜橋,国際興業（株）,"赤26/26-2,赤27,赤27-2,赤27-3,赤27H",,,"1,1,1,1,1",,,,139.74945573934235,35.77874677083955,東京都
本町五丁目,東武バスセントラル（株）,"王30,足35",,,"1,1",,,,139.805815029123,35.77872866287571,東京都
住友前,西東京バス（株）,"羽31,小02,小03,羽33",,,"1,1,1,1",,,,139.31482368577144,35.77869761528253,東京都
郷土博物館入口,西武バス（株）,"清62,清63,清63-1",,,"1,1,1",,,,139.52153798382767,35.77869604168516,東京都
一ツ家三丁目,東武バスセントラル（株）,"王30,足35,綾40,綾40-2",,,"1,1,1,1",,,,139.81110930570026,35.778691000403334,東京都
青井六丁目,東武バスセントラル（株）,"綾20,綾22,綾24,王30,足35,綾40,綾40-2",,,"1,1,1,1,1,1,1",,,,139.81566530713954,35.77864440596059,東京都
東部病院前,東京都,王49,,,2,,,,139.7986903535552,35.778616279393276,東京都
東部病院前,東武バスセントラル（株）,王30,,,1,,,,139.7986903535552,35.778616279393276,東京都
鹿浜三丁目,東京都,王49,,,2,,,,139.75333039720147,35.77859663102259,東京都
鹿浜三丁目,東武バスセントラル（株）,王30,,,1,,,,139.75333039720147,35.77859663102259,東京都
鹿浜三丁目,国際興業（株）,"赤26/26-2,赤27,赤27-2,赤27-3,赤27H",,,"1,1,1,1,1",,,,139.75333039720147,35.77859663102259,東京都
二丁目東,京成バス（株）,金01,,,1,,,,139.85937961662816,35.77859852872707,東京都
玉川神社前（青梅市）,西東京バス（株）,"深夜,小05",,,"1,1",,,,139.27276088863746,35.77857404569271,東京都
島根三丁目,東京都,王49,,,2,,,,139.79628083503545,35.7785631688198,東京都
島根三丁目（南）,東武バスセントラル（株）,王30,,,1,,,,139.79608807327884,35.77856094129766,東京都
大津久,西東京バス（株）,"奥11,奥10,奥09,奥12",,,"1,1,1,1",,,,139.00433952306665,35.7784982757259,東京都
麦山,西東京バス（株）,"奥11,奥10,奥09,奥12",,,"1,1,1,1",,,,139.01210251261588,35.778485045045784,東京都
鹿浜三丁目交差点,東京都,王49,,,2,,,,139.75605793456342,35.77849561523687,東京都
鹿浜三丁目交差点,東武バスセントラル（株）,"西01,王30",,,"1,1",,,,139.75605793456342,35.77849561523687,東京都
鹿浜三丁目交差点,（株）新日本観光自動車,椿04系統（はるかぜ11号）,,,1,,,,139.75605793456342,35.77849561523687,東京都
鹿浜三丁目交差点,国際興業（株）,"赤26/26-2,赤27,赤27-2,赤27-3,赤27H",,,"1,1,1,1,1",,,,139.75605793456342,35.77849561523687,東京都
グリーンタウン清戸,西武バス（株）,"清61-2,清61,清61-1",,,"1,1,1",,,,139.53616704090166,35.77848057182856,東京都
梅島三丁目,東京都,王49,,,2,,,,139.79311110038324,35.778477253835334,東京都
梅島三丁目,東武バスセントラル（株）,"王30,竹14",,,"1,1",,,,139.79311110038324,35.778477253835334,東京都
東金町地区センター入口,京成バス（株）,金63,,,1,,,,139.8796619560279,35.778431843598646,東京都
二丁目中央,京成バス（株）,金01,,,1,,,,139.8573556026571,35.77842272654512,東京都
徳丸六丁目,国際興業（株）,"東練01,東練01-2",,,"1,1",,,,139.66490609976597,35.778391070258316,東京都
桜土手（水元公園）,東武バスセントラル（株）,"金50,金52,金54",,,"1,1,1",,,,139.88315064118538,35.778366500821974,東京都
赤塚庁舎入口,板橋区,りんりんGO,,,3,,,,139.6472270659965,35.77834768639805,東京都
赤塚庁舎入口,国際興業（株）,下赤03,,,1,,,,139.6472270659965,35.77834768639805,東京都
上沼田団地入口,国際興業（株）,"赤27,赤27-2,赤27-3,赤27H",,,"1,1,1,1",,,,139.763811134893,35.77832974706991,東京都
椿二丁目,東京都,王49,,,2,,,,139.7605450393715,35.778327989887366,東京都
椿二丁目,東武バスセントラル（株）,"西01,王30",,,"1,1",,,,139.7605450393715,35.778327989887366,東京都
椿二丁目,国際興業（株）,"赤26/26-2,赤27,赤27-2,赤27-3,赤27H",,,"1,1,1,1,1",,,,139.7605450393715,35.778327989887366,東京都
上沼田団地,東京都,王49,,,2,,,,139.7635908769593,35.778328074488954,東京都
上沼田団地,東武バスセントラル（株）,"西01,王30",,,"1,1",,,,139.7635908769593,35.778328074488954,東京都
江北陸橋下,東京都,"里48,里48-3,王49",,,"2,2,2",,,,139.7702263925414,35.77831937098878,東京都
江北陸橋下,東武バスセントラル（株）,"西01,西08,北05,王30",,,"1,1,1,1",,,,139.7702263925414,35.77831937098878,東京都
江北陸橋下,国際興業（株）,"赤27,赤27-2,赤27-3,赤27H",,,"1,1,1,1",,,,139.7702263925414,35.77831937098878,東京都
西加平,東武バスセントラル（株）,"綾22,綾24,王30,足35,綾40,綾40-2",,,"1,1,1,1,1,1",,,,139.81848368819433,35.77832059610696,東京都
西新井陸橋,東京都,"王40甲,王40出入,王49",,,"2,2,2",,,,139.7874412976654,35.77831155393925,東京都
西新井陸橋,東武バスセントラル（株）,"西01,西02,西03,西04,西07,西08,北03,王30",,,"1,1,1,1,1,1,1,1",,,,139.7874412976654,35.77831155393925,東京都
西新井陸橋,国際興業（株）,"赤23/23-3,赤27,赤27-2,赤27H,西11",,,"1,1,1,1,1",,,,139.7874412976654,35.77831155393925,東京都
野塩市民センター南,清瀬市,"清瀬駅北口発清瀬駅南口行（緑蔭通り経由）,清瀬駅北口発清瀬駅南口行（志木街道経由）,清瀬駅南口発清瀬駅北口行（緑蔭通り経由）,清瀬駅南口発清瀬駅北口行（志木街道経由）",,,"3,3,3,3",,,,139.49972025122537,35.7782653022415,東京都
西新井駅東口,東武バスセントラル（株）,"西05,西06,西21,西22,竹14,はるかぜ4号（区役所・鹿浜線）,はるかぜ7号（西新井・六木線）",,,"1,1,1,1,1,1,1",,,,139.79073630488307,35.778264709296295,東京都
西新井駅東口,日立自動車交通（株）,"はるかぜ1号（西新井・綾瀬線）,はるかぜ12号（西新井・亀有線）",,,"1,1",,,,139.79073630488307,35.778264709296295,東京都
水元社会教育館いこいの家入口,京成バス（株）,金01,,,1,,,,139.85532214681209,35.77821887119007,東京都
第五中学校裏,東京都,王49,,,2,,,,139.77549010266898,35.778208429482696,東京都
第五中学校裏,東武バスセントラル（株）,"西01,西08,王30",,,"1,1,1",,,,139.77549010266898,35.778208429482696,東京都
第五中学校裏,国際興業（株）,"赤27,赤27-2,赤27H",,,"1,1,1",,,,139.77549010266898,35.778208429482696,東京都
大谷田一丁目,東武バスセントラル（株）,"有29,綾34,綾35,有64,有65",,,"1,1,1,1,1",,,,139.84331666445925,35.778204984747795,東京都
西新井大師参道入口,日立自動車交通（株）,はるかぜ10号（西新井・高野線）,,,1,,,,139.77765880551362,35.77816266752324,東京都
野塩郵便局東,清瀬市,"清瀬駅北口発清瀬駅南口行（緑蔭通り経由）,清瀬駅北口発清瀬駅南口行（志木街道経由）,清瀬駅南口発清瀬駅北口行（緑蔭通り経由）,清瀬駅南口発清瀬駅北口行（志木街道経由）",,,"3,3,3,3",,,,139.50144871458073,35.77814008072277,東京都
志村四中,国際興業（株）,"赤01/01-2/85,赤02,赤02-2,赤84,常01",,,"1,1,1,1,1",,,,139.68325637903155,35.77813190781202,東京都
栗原町,東京都,"王40甲,王40出入,王49",,,"2,2,2",,,,139.7835666278346,35.77813479493572,東京都
栗原町,東武バスセントラル（株）,"西01,西03,西04,西07,西08,北03,王30",,,"1,1,1,1,1,1,1",,,,139.7835666278346,35.77813479493572,東京都
栗原町,国際興業（株）,"赤23/23-3,赤27,赤27-2,赤27H,西11",,,"1,1,1,1,1",,,,139.7835666278346,35.77813479493572,東京都
西新井大師前,東京都,"王40甲,王40出入,王49",,,"2,2,2",,,,139.78062827326414,35.77809248820209,東京都
西新井大師前,東武バスセントラル（株）,"西01,西08,王30",,,"1,1,1",,,,139.78062827326414,35.77809248820209,東京都
西新井大師,東武バスセントラル（株）,"北01,北02,北03",,,"1,1,1",,,,139.78105573673903,35.77807972488889,東京都
西新井大師,国際興業（株）,"赤27,赤27-2,赤27H",,,"1,1,1",,,,139.78105573673903,35.77807972488889,東京都
成増駅北口,東武バスウエスト（株）,"増07,増09",,,"1,1",,,,139.63256889066972,35.77805623863239,東京都
成増駅北口,国際興業（株）,"赤02,赤02-2,増14,増17,増19,増100,高01/01-2",,,"1,1,1,1,1,1,1",,,,139.63256889066972,35.77805623863239,東京都
西東京バス青梅支所,西東京バス（株）,"小02,小03,河11,小12,羽33",,,"1,1,1,1,1",,,,139.310630179833,35.7780203455043,東京都
小豆沢二丁目,国際興業（株）,"赤56,赤56-2,赤56-3",,,"1,1,1",,,,139.69851653802854,35.778006155954444,東京都
留浦,西東京バス（株）,"奥11,奥10,奥09,奥12",,,"1,1,1,1",,,,138.99016136559024,35.777975269933435,東京都
志茂一丁目,東京都,王57,,,2,,,,139.73263037495437,35.77794902296875,東京都
西台交差点南,国際興業（株）,赤56,,,1,,,,139.67443024550323,35.77793916400297,東京都
小作駅入口,羽村市,"羽村中央コース,小作コース：内廻り",,,"3,3",,,,139.3030749609742,35.77790932361136,東京都
小右衛門町,東京都,"北47,王49",,,"2,2",,,,139.80315528593215,35.77788424899315,東京都
鹿浜交差点,（株）新日本観光自動車,椿04系統（はるかぜ11号）,,,1,,,,139.7509784119099,35.7778747081437,東京都
しばられ地蔵,京成バス（株）,"金61,金63",,,"1,1",,,,139.86985478466997,35.7778112902827,東京都
中清戸郵便局,西武バス（株）,"清61-2,清61,清61-1",,,"1,1,1",,,,139.53513932290397,35.77779981434651,東京都
JA長岡支店入口,立川バス（株）,羽17,,,1,,,,139.33014101124547,35.77778843898585,東京都
加平橋,東武バスセントラル（株）,"綾22,綾24,王30,足35,綾40,綾40-2,綾61,綾62",,,"1,1,1,1,1,1,1,1",,,,139.82628944121342,35.777792970518675,東京都
椿一丁目,（株）新日本観光自動車,椿04系統（はるかぜ11号）,,,1,,,,139.76057978279874,35.77775444863646,東京都
障がい福祉センターあしすと,日立自動車交通（株）,"はるかぜ1号（西新井・綾瀬線）,はるかぜ12号（西新井・亀有線）",,,"1,1",,,,139.7931350189907,35.77771845206618,東京都
富士山入口,西武バス（株）,小手03,,,1,,,,139.35261511892224,35.777679175866325,東京都
赤塚小学校,国際興業（株）,"赤02,赤02-2",,,"1,1",,,,139.64207420072526,35.77768041227225,東京都
長渕駐在,西東京バス（株）,"深夜,小05",,,"1,1",,,,139.27471351550733,35.77765865279877,東京都
小豆沢住宅,国際興業（株）,"赤54,赤54-1,赤56,赤56-2,赤56-3,赤96",,,"1,1,1,1,1,1",,,,139.70217237008936,35.777669060252244,東京都
弁天通り,国際興業（株）,"赤50,赤51,赤52-2,赤53,赤80",,,"1,1,1,1,1",,,,139.71847017448522,35.7776606368026,東京都
飯塚橋下,東武バスセントラル（株）,"綾34,綾35",,,"1,1",,,,139.84894735561736,35.7776636828351,東京都
障がい福祉センター,東武バスセントラル（株）,"西05,はるかぜ4号（区役所・鹿浜線）",,,"1,1",,,,139.79345221781963,35.77765402418356,東京都
小河内神社,西東京バス（株）,"奥11,奥10,奥09,奥12",,,"1,1,1,1",,,,139.01528701873747,35.7776178484282,東京都
新秋津駅,西武バス（株）,"久11-2,久11-1,【久11-1】深夜",,,"1,1,1",,,,139.49306803911287,35.77762661527991,東京都
新秋津駅,東村山市,東村山駅東口〜多摩北部医療センター〜新秋津駅路線②（多摩北部医療センターを経由して、東村山駅と新秋津駅を往復）,,,3,,,,139.49306803911287,35.77762661527991,東京都
西台一丁目,国際興業（株）,"東練05,東練80",,,"1,1",,,,139.67140525516095,35.77760411401345,東京都
綾瀬警察署前,東武バスセントラル（株）,"綾21,王30,足35",,,"1,1,1",,,,139.83121015456535,35.7775336031235,東京都
新町端野,西東京バス（株）,"羽31,羽33",,,"1,1",,,,139.3211120713783,35.77751793939063,東京都
末広町1丁目,西東京バス（株）,"羽31,小02,小03,羽33",,,"1,1,1,1",,,,139.31243531802247,35.777457408972836,東京都
青井五丁目,東武バスセントラル（株）,"北11,北12,五28",,,"1,1,1",,,,139.81854982491217,35.777467919179344,東京都
二丁目西,京成バス（株）,金01,,,1,,,,139.85466360357276,35.77744148125492,東京都
成増三丁目,国際興業（株）,"赤02,赤02-2,増14,増17,高01/01-2",,,"1,1,1,1,1",,,,139.63406573251322,35.77742190237886,東京都
赤羽駅西口,国際興業（株）,"赤01/01-2/85,赤02,赤50,赤51,赤52-2,赤53,赤54,赤54-1,赤54-2,赤56,赤56-2,赤56-3,赤57,赤57-2,赤58,赤80,赤80-2,赤83,赤84,赤96",,,"1,1,1,1,1,1,1,1,1,1,1,1,1,1,1,1,1,1,1,1",,,,139.7199697760288,35.77741988401518,東京都
東長岡,東京都,梅70,,,2,,,,139.334647023636,35.77740582807895,東京都
東長岡,立川バス（株）,羽12-1,,,1,,,,139.334647023636,35.77740582807895,東京都
学童保育クラブ,京成バス（株）,金01,,,1,,,,139.86054929038667,35.7773947976111,東京都
上清戸,西武バス（株）,清64,,,1,,,,139.52165687153772,35.77731260564855,東京都
上谷中町,東武バスセントラル（株）,"綾21,王30,足35",,,"1,1,1",,,,139.8345790508241,35.777316438410416,東京都
大泉桜学園,西武バス（株）,荻15,,,1,,,,139.5890955130444,35.777304138412426,東京都
環八高速下,国際興業（株）,赤56,,,1,,,,139.67555877653308,35.777295662414566,東京都
成増町,西武バス（株）,"練42,練40,吉60,石11,増72,泉34,泉33,【泉33】深夜",,,"1,1,1,1,1,1,1,1",,,,139.63006912854533,35.77728766857126,東京都
成増町,国際興業（株）・西武バス（株）,石02・増16/16-2,,,1,,,,139.63006912854533,35.77728766857126,東京都
中奥多摩湖,西東京バス（株）,"奥11,奥10,奥09,奥12",,,"1,1,1,1",,,,139.00276029833842,35.77726587714236,東京都
岩蔵街道入口,立川バス（株）,"立10-1・12-2,立10-2・12-1",,,"1,1",,,,139.3422866137829,35.777262391341225,東京都
栗島住区センター,日立自動車交通（株）,はるかぜ1号（西新井・綾瀬線）,,,1,,,,139.80548483885954,35.777265211076305,東京都
栗島中学校前,日立自動車交通（株）,はるかぜ1号（西新井・綾瀬線）,,,1,,,,139.8094970054537,35.77715504189794,東京都
志村消防署,国際興業（株）,"赤01/01-2/85,常01",,,"1,1",,,,139.67904068756317,35.777132452159584,東京都
小留浦,西東京バス（株）,"奥11,奥10,奥09,奥12",,,"1,1,1,1",,,,138.9953460441877,35.77711722562523,東京都
弓道場入口,羽村市,小作コース：内廻り,,,3,,,,139.2963480236021,35.777115076968826,東京都
成増駅南口,西武バス（株）,"練高01,練高02,光31,練47,泉34,泉33,【泉33】深夜",,,"1,1,1,1,1,1,1",,,,139.63242255080448,35.77704608043595,東京都
成増駅南口,国際興業（株）・西武バス（株）,石02・増16/16-2,,,1,,,,139.63242255080448,35.77704608043595,東京都
成増駅南口,東武バスウエスト（株）,"増32,和06・和08・和09",,,"1,1",,,,139.63242255080448,35.77704608043595,東京都
徳丸五丁目,板橋区,りんりんGO,,,3,,,,139.6546917713339,35.777011014268524,東京都
徳丸五丁目,国際興業（株）,下赤03,,,1,,,,139.6546917713339,35.777011014268524,東京都
成増駅入口,東武バスウエスト（株）,"増32,和06・和08・和09",,,"1,1",,,,139.63057993055529,35.776972994795,東京都
秋津中通り,東村山市,東村山駅東口〜多摩北部医療センター〜新秋津駅路線②（多摩北部医療センターを経由して、東村山駅と新秋津駅を往復）,,,3,,,,139.49084239724527,35.776951090731394,東京都
大正新道,東武バスセントラル（株）,"西05,はるかぜ4号（区役所・鹿浜線）",,,"1,1",,,,139.79761079505144,35.776903393941616,東京都
大正新道,日立自動車交通（株）,"はるかぜ1号（西新井・綾瀬線）,はるかぜ12号（西新井・亀有線）",,,"1,1",,,,139.79761079505144,35.776903393941616,東京都
足立第五中学校前,東京都,"王40甲,王40出入",,,"2,2",,,,139.77646868530042,35.77689527961405,東京都
大谷田,東武バスセントラル（株）,"綾23,有25,有26,有27,有36,深夜39,有51,綾34,綾35,綾37",,,"1,1,1,1,1,1,1,1,1,1",,,,139.84684503262778,35.776894623104,東京都
富士神社入口,京成バス（株）,金01,,,1,,,,139.85504997759395,35.77687628195305,東京都
小作駅入口,西東京バス（株）,小12,,,1,,,,139.30523565132128,35.776848947368286,東京都
東和五丁目,東武バスセントラル（株）,"有38,王30,足35",,,"1,1,1",,,,139.83900454636117,35.77685846820173,東京都
葛飾総合高校,京成バス（株）,金62,,,1,,,,139.86679917458042,35.77684896416383,東京都
東金町五丁目,東武バスセントラル（株）,"金50,金52,金54",,,"1,1,1",,,,139.87997948234226,35.77684650365547,東京都
志村坂上区民事務所,国際興業（株）,"赤56,赤56-2,赤56-3",,,"1,1,1",,,,139.69604205493886,35.776837081098186,東京都
柳瀬橋,西武バス（株）,"所46,久11-1,【久11-1】深夜",,,"1,1,1",,,,139.47858977458952,35.77679303847223,東京都
長岡南会館,立川バス（株）,"羽12-1,羽17",,,"1,1",,,,139.32822037369968,35.77675294857099,東京都
梅島二丁目,日立自動車交通（株）,"はるかぜ1号（西新井・綾瀬線）,はるかぜ12号（西新井・亀有線）",,,"1,1",,,,139.80090524836152,35.77670905255982,東京都
日の出山登山口,西東京バス（株）,五20,,,1,,,,139.19381316135403,35.77669416790582,東京都
西新井本町二丁目,日立自動車交通（株）,はるかぜ10号（西新井・高野線）,,,1,,,,139.77460107945856,35.77667191677197,東京都
堀之内北公園入口,（株）新日本観光自動車,椿04系統（はるかぜ11号）,,,1,,,,139.7564607536709,35.776661404263734,東京都
六道の辻,国際興業（株）,"赤02,赤02-2",,,"1,1",,,,139.64001691639547,35.77664992617977,東京都
小作駅東口,羽村市,"羽村中央コース,小作コース：内廻り",,,"3,3",,,,139.30201730470424,35.776612503006994,東京都
小作駅東口,西東京バス（株）,"小02,小03,河11,小08",,,"1,1,1,1",,,,139.30201730470424,35.776612503006994,東京都
中里一丁目,清瀬市,"清瀬駅北口発清瀬駅南口行（緑蔭通り経由）,清瀬駅北口発清瀬駅南口行（志木街道経由）,清瀬駅南口発清瀬駅北口行（緑蔭通り経由）,清瀬駅南口発清瀬駅北口行（志木街道経由）",,,"3,3,3,3",,,,139.51027185190887,35.77661797712191,東京都
さかえ児童遊園,京成バス（株）,金01,,,1,,,,139.86177700676913,35.776608227856116,東京都
西新井駅前,東京都,"王40甲,王40出入",,,"2,2",,,,139.79009754065416,35.77658071747001,東京都
万場坂,西東京バス（株）,"深夜,小05",,,"1,1",,,,139.27796825473376,35.77648137783004,東京都
西新井駅入口,東京都,"王40甲,王40出入",,,"2,2",,,,139.7847365975818,35.77647696277594,東京都
西新井駅入口,東武バスセントラル（株）,"西01,西02,西03,西04,西08,北02,北03",,,"1,1,1,1,1,1,1",,,,139.7847365975818,35.77647696277594,東京都
西新井駅入口,国際興業（株）,"赤23/23-3,赤27,赤27-2,赤27H,西11",,,"1,1,1,1,1",,,,139.7847365975818,35.77647696277594,東京都
病院前（瑞穂町）,西武バス（株）,"入市54,入市44,入市54　準急,小手03",,,"1,1,1,1",,,,139.35257072550553,35.77646293594897,東京都
北綾瀬駅入口,朝日自動車（株）,"綾瀬駅〜六ツ木都住〜八潮駅南口,綾瀬駅〜六ツ木都住",,,"1,1",,,,139.83380164127385,35.77646903818135,東京都
飯塚商店街,京成バス（株）,金01,,,1,,,,139.86033321575306,35.77643243772,東京都
栄町一丁目,羽村市,"小作コース：外廻り,小作コース：内廻り",,,"3,3",,,,139.30607309642878,35.7764095755557,東京都
旭町三丁目,西武バス（株）,"練42,練40,吉60,石11,増72",,,"1,1,1,1,1",,,,139.6256028726807,35.77634379617597,東京都
旭町三丁目,国際興業（株）・西武バス（株）,石02・増16/16-2,,,1,,,,139.6256028726807,35.77634379617597,東京都
梅島二丁目,東京都,王49,,,2,,,,139.7975994323065,35.77632957134473,東京都
梅島二丁目,東武バスセントラル（株）,"西05,はるかぜ4号（区役所・鹿浜線）",,,"1,1",,,,139.7975994323065,35.77632957134473,東京都
赤羽都営住宅,国際興業（株）,"赤50,赤51,赤53,赤54,赤54-1,赤56,赤56-2,赤56-3,赤57,赤57-2,赤80-2",,,"1,1,1,1,1,1,1,1,1,1,1",,,,139.71074422597826,35.77628640084052,東京都
志村坂上,国際興業（株）,"池20/20-2,池21,赤56,赤56-2,赤56-3",,,"1,1,1,1,1",,,,139.69486939151037,35.77627129124613,東京都
一丁目北,京成バス（株）,金01,,,1,,,,139.85606741691836,35.77625025765755,東京都
大谷田陸橋,東武バスセントラル（株）,"綾23,有25,有26,有27,有36,深夜39,有51,綾34,綾37",,,"1,1,1,1,1,1,1,1,1",,,,139.84425581266865,35.776229417772626,東京都
半田小学校前,マイスカイ交通（株）,M-01-3・M-01-4（三郷駅南口〜三郷市役所〜三郷中央駅〜みさと公園前〜金町駅南口）,,,1,,,,139.87800350445772,35.77620996858891,東京都
志村二丁目,国際興業（株）,"池20/20-2,赤56,赤56-2,赤56-3",,,"1,1,1,1",,,,139.69056390652995,35.776197031482745,東京都
気象衛星センター,西武バス（株）,"清61-2,清61,清61-1",,,"1,1,1",,,,139.5326259966332,35.77614301599047,東京都
西新井駅,国際興業（株）,"赤23/23-3,赤27,赤27-2,赤27H,西11",,,"1,1,1,1,1",,,,139.78965398524173,35.776131589457826,東京都
清瀬郵便局,西武バス（株）,"深夜,清66,清64-2",,,"1,1,1",,,,139.5180788944159,35.776122111642344,東京都
清瀬郵便局,清瀬市,"清瀬駅北口発清瀬駅南口行（緑蔭通り経由）,清瀬駅北口発清瀬駅南口行（志木街道経由）,清瀬駅南口発清瀬駅北口行（緑蔭通り経由）,清瀬駅南口発清瀬駅北口行（志木街道経由）",,,"3,3,3,3",,,,139.5180788944159,35.776122111642344,東京都
半田小学校入口,京成タウンバス（株）,金02,,,1,,,,139.87756714353696,35.77611887964374,東京都
半田小学校入口,マイスカイ交通（株）,M-10（三郷中央駅〜みさと公園前〜金町駅南口）,,,1,,,,139.87756714353696,35.77611887964374,東京都
元町二丁目,清瀬市,"清瀬駅北口発清瀬駅南口行（緑蔭通り経由）,清瀬駅北口発清瀬駅南口行（志木街道経由）,清瀬駅南口発清瀬駅北口行（緑蔭通り経由）,清瀬駅南口発清瀬駅北口行（志木街道経由）",,,"3,3,3,3",,,,139.5158510507023,35.77610900509535,東京都
江北区民事務所入口,（株）新日本観光自動車,椿04系統（はるかぜ11号）,,,1,,,,139.76104259031507,35.776111324623095,東京都
西新井駅西口,東武バスセントラル（株）,"西01,西02,西03,西04,西07,西08,北03,北04",,,"1,1,1,1,1,1,1,1",,,,139.78912264149739,35.7760979667542,東京都
西新井駅西口,日立自動車交通（株）,はるかぜ10号（西新井・高野線）,,,1,,,,139.78912264149739,35.7760979667542,東京都
栗島小学校入口,日立自動車交通（株）,はるかぜ1号（西新井・綾瀬線）,,,1,,,,139.81113690843517,35.77608269123905,東京都
旭町（練馬区）,西武バス（株）,"練42,練40,吉60,石11,増72",,,"1,1,1,1,1",,,,139.6295003329862,35.77605669233644,東京都
旭町（練馬区）,国際興業（株）・西武バス（株）,石02・増16/16-2,,,1,,,,139.6295003329862,35.77605669233644,東京都
徳丸町,国際興業（株）,"東練01,東練01-2,東練05,東練80",,,"1,1,1,1",,,,139.6644859496021,35.775955514372214,東京都
小作駅西口,羽村市,"小作コース：外廻り,小作コース：内廻り",,,"3,3",,,,139.30153986312285,35.77590923945237,東京都
小作駅西口,西東京バス（株）,"小06,深夜,小07,小13,小14＜学びの城経由＞,小15,小作駅西口-菅生高校〔急行〕,小05,小作駅西口-菅生高校〔急行学びの城経由〕,学びの城-小作駅〔急行〕,福30",,,"1,1,1,1,1,1,1,1,1,1,1",,,,139.30153986312285,35.77590923945237,東京都
大泉特別支援学校,西武バス（株）,荻15,,,1,,,,139.59188992404566,35.77590673306329,東京都
地下鉄成増駅,西武バス（株）,"練高01,練高02,光31,練47",,,"1,1,1,1",,,,139.63283505753742,35.77590567228084,東京都
瑞穂松原,立川バス（株）,羽12-1,,,1,,,,139.33958912620687,35.775884995752136,東京都
芝山小学校東,清瀬市,"清瀬駅北口発清瀬駅南口行（緑蔭通り経由）,清瀬駅北口発清瀬駅南口行（志木街道経由）,清瀬駅南口発清瀬駅北口行（緑蔭通り経由）,清瀬駅南口発清瀬駅北口行（志木街道経由）",,,"3,3,3,3",,,,139.51386901976878,35.7758842637851,東京都
松原,東京都,梅70,,,2,,,,139.3396280119735,35.77587388674929,東京都
堀之内一丁目北,（株）新日本観光自動車,椿04系統（はるかぜ11号）,,,1,,,,139.7550845210916,35.77588478956253,東京都
しょうぶ沼公園,東武バスセントラル（株）,綾21,,,1,,,,139.8300555827473,35.7758724074377,東京都
病院前,東武バスセントラル（株）,北01,,,1,,,,139.78169188663168,35.77584777820353,東京都
小合保育園,京成バス（株）,金01,,,1,,,,139.86282168012502,35.77581277243896,東京都
徳丸二丁目,国際興業（株）,"東練01,東練01-2,東練05",,,"1,1,1",,,,139.66182370141365,35.77577379815151,東京都
赤羽郷,国際興業（株）,"赤50,赤51,赤53,赤54,赤54-1,赤56,赤56-2,赤56-3,赤57,赤57-2,赤80-2,赤93,赤96",,,"1,1,1,1,1,1,1,1,1,1,1,1,1",,,,139.70810752046242,35.77573417766724,東京都
ジェイテクト前,西東京バス（株）,"羽31,羽33",,,"1,1",,,,139.31916562476772,35.77570086673522,東京都
二ツ家町,東武バスセントラル（株）,"北11,北12,五28",,,"1,1,1",,,,139.81629036485253,35.77570031421164,東京都
宮の下,国際興業（株）,"東練01,東練01-2,東練05",,,"1,1,1",,,,139.660288846772,35.77566765856149,東京都
野塩四丁目,清瀬市,"清瀬駅北口発清瀬駅南口行（緑蔭通り経由）,清瀬駅北口発清瀬駅南口行（志木街道経由）,清瀬駅南口発清瀬駅北口行（緑蔭通り経由）,清瀬駅南口発清瀬駅北口行（志木街道経由）",,,"3,3,3,3",,,,139.5020198114617,35.775659287003386,東京都
坪沢橋,西東京バス（株）,"奥11,奥10,奥09,奥12",,,"1,1,1,1",,,,138.99233275256998,35.775634779036125,東京都
飯塚小学校入口,京成バス（株）,金01,,,1,,,,139.85892443973015,35.775645341730815,東京都
成増一丁目,西武バス（株）,"練42,練40,吉60,石11,増72",,,"1,1,1,1,1",,,,139.63169127485835,35.775637068562894,東京都
成増一丁目,国際興業（株）・西武バス（株）,石02・増16/16-2,,,1,,,,139.63169127485835,35.775637068562894,東京都
深山橋,西東京バス（株）,"奥11,奥10,奥09,奥12",,,"1,1,1,1",,,,139.00047033052022,35.77561793171102,東京都
東水元二丁目,京成バス（株）,"金61,金63",,,"1,1",,,,139.87218497293188,35.77552519032094,東京都
志村二中,国際興業（株）,"赤54,赤54-1,赤56,赤56-2,赤56-3,赤96",,,"1,1,1,1,1,1",,,,139.70278517705148,35.77545408596643,東京都
一丁目南,京成バス（株）,金01,,,1,,,,139.8566282277085,35.77544176018959,東京都
江北小学校前,東京都,"里48-2,里48-3,王49",,,"2,2,2",,,,139.7653583442542,35.775420137609274,東京都
江北小学校前,東武バスセントラル（株）,"西08,北05,王30",,,"1,1,1",,,,139.7653583442542,35.775420137609274,東京都
江北小学校前＜旧上沼田中学校前＞,（株）新日本観光自動車,鹿02系統（はるかぜ6号）,,,1,,,,139.7653583442542,35.775420137609274,東京都
江北小学校前,国際興業（株）,赤27H,,,1,,,,139.7653583442542,35.775420137609274,東京都
赤塚六丁目,板橋区,りんりんGO,,,3,,,,139.64692359423566,35.775412189509446,東京都
赤塚六丁目,国際興業（株）,下赤03,,,1,,,,139.64692359423566,35.775412189509446,東京都
長渕1丁目,西東京バス（株）,"深夜,小05",,,"1,1",,,,139.2800564346659,35.7753579516122,東京都
新田一丁目,東京都,"王41,王55",,,"2,2",,,,139.73839078747366,35.77534567776848,東京都
中台三丁目,国際興業（株）,"赤56,赤56-3",,,"1,1",,,,139.6812694381214,35.7753271714025,東京都
商店街入口,京成バス（株）,金01,,,1,,,,139.86035546283756,35.77530259878587,東京都
赤羽南一丁目,関東バス（株）・国際興業（株）,赤31,,,1,,,,139.72341206998146,35.77525387437259,東京都
赤羽南一丁目,国際興業（株）,"赤25/25-2/25-3,赤26/26-2,赤27,赤27-3,赤27H,赤95",,,"1,1,1,1,1,1",,,,139.72341206998146,35.77525387437259,東京都
栄町3丁目（羽村市）,西東京バス（株）,羽31,,,1,,,,139.31277868410575,35.775216566332766,東京都
足立区役所,東京都,"草43,北47,王49",,,"2,2,2",,,,139.80326872513848,35.77520928431315,東京都
足立区役所,東武バスセントラル（株）,"西05,足35,はるかぜ4号（区役所・鹿浜線）",,,"1,1,1",,,,139.80326872513848,35.77520928431315,東京都
足立区役所,日立自動車交通（株）,"はるかぜ1号（西新井・綾瀬線）,はるかぜ12号（西新井・亀有線）",,,"1,1",,,,139.80326872513848,35.77520928431315,東京都
中通り中央,東村山市,東村山駅東口〜多摩北部医療センター〜新秋津駅路線②（多摩北部医療センターを経由して、東村山駅と新秋津駅を往復）,,,3,,,,139.48588782845775,35.77516452565826,東京都
松尾,西東京バス（株）,"五21,五20",,,"1,1",,,,139.195560060596,35.77514989555777,東京都
グランド入口（東村山市）,西武バス（株）,"所46,久11-1,【久11-1】深夜",,,"1,1,1",,,,139.47914197895346,35.77514936798547,東京都
東金町4丁目,京成タウンバス（株）,金02,,,1,,,,139.87404487667206,35.77507743520505,東京都
東金町4丁目,マイスカイ交通（株）,"M-01-3・M-01-4（三郷駅南口〜三郷市役所〜三郷中央駅〜みさと公園前〜金町駅南口）,M-10（三郷中央駅〜みさと公園前〜金町駅南口）",,,"1,1",,,,139.87404487667206,35.77507743520505,東京都
北車庫入口,東京都,王57,,,2,,,,139.7332948732441,35.775060535067134,東京都
長岡一丁目,立川バス（株）,"羽12-1,羽17",,,"1,1",,,,139.33075381990233,35.7750215512147,東京都
半田稲荷前,東武バスセントラル（株）,"金50,金52,金54",,,"1,1,1",,,,139.8779910377026,35.77503430016114,東京都
赤羽西六丁目,国際興業（株）,"赤53,赤54,赤54-1,赤56,赤56-2,赤56-3,赤93,赤96",,,"1,1,1,1,1,1,1,1",,,,139.70460754781152,35.77499335768588,東京都
三角広場,京成バス（株）,金01,,,1,,,,139.8632402858448,35.774906784913384,東京都
金町第二団地,京成バス（株）,金62,,,1,,,,139.86644619031168,35.77489507871719,東京都
弁天坂下,国際興業（株）,"赤50,赤51,赤52-2,赤53,赤80",,,"1,1,1,1,1",,,,139.716730430656,35.77484956022533,東京都
新宿六丁目,京成バス（株）,金01,,,1,,,,139.86135568750933,35.77481154493102,東京都
秋津東小学校,西武バス（株）,"久11-2,久11-1,【久11-1】深夜",,,"1,1,1",,,,139.49062828106912,35.77479551302234,東京都
阿弥陀橋,東京都,"王40甲,王40出入",,,"2,2",,,,139.77294686161497,35.77476709325254,東京都
中台二丁目,国際興業（株）,"赤56,赤56-3",,,"1,1",,,,139.68346314828625,35.77475230138116,東京都
堀之内一丁目,（株）新日本観光自動車,椿04系統（はるかぜ11号）,,,1,,,,139.756934128086,35.774739981336424,東京都
本木町第2アパート,日立自動車交通（株）,はるかぜ10号（西新井・高野線）,,,1,,,,139.77435174079486,35.77472713867992,東京都
足立区役所前,東京都,"草43,北47,王49",,,"2,2,2",,,,139.80330374491172,35.77468240184874,東京都
武蔵野公園西,羽村市,"小作コース：外廻り,小作コース：内廻り",,,"3,3",,,,139.30858544382392,35.7746129038342,東京都
元町一丁目,西武バス（株）,"清62,清63,清63-1,清64",,,"1,1,1,1",,,,139.52046313351948,35.77456458137264,東京都
東和五丁目,日立自動車交通（株）,"はるかぜ9号（青井・亀有線）,はるかぜ12号（西新井・亀有線）",,,"1,1",,,,139.83928848179403,35.77456237693149,東京都
東和五丁目,東武バスセントラル（株）,"綾34,綾35",,,"1,1",,,,139.83928848179403,35.77456237693149,東京都
小豆沢一丁目,国際興業（株）,"赤53,赤93",,,"1,1",,,,139.70149420119571,35.77454028436635,東京都
東星学園,清瀬市,"清瀬駅北口発清瀬駅南口行（緑蔭通り経由）,清瀬駅南口発清瀬駅北口行（緑蔭通り経由）",,,"3,3",,,,139.5013065563329,35.774521631365154,東京都
けやきホール,清瀬市,"清瀬駅南口発清瀬駅北口行（緑蔭通り経由）,清瀬駅南口発清瀬駅北口行（志木街道経由）",,,"3,3",,,,139.5193062995027,35.77451928199102,東京都
梅島駅前,東京都,王49,,,2,,,,139.79757673892107,35.774450622102165,東京都
梅島駅前,東武バスセントラル（株）,"西05,はるかぜ4号（区役所・鹿浜線）",,,"1,1",,,,139.79757673892107,35.774450622102165,東京都
信愛病院,清瀬市,"清瀬駅北口発清瀬駅南口行（志木街道経由）,清瀬駅南口発清瀬駅北口行（志木街道経由）",,,"3,3",,,,139.50305279512165,35.774385856884116,東京都
若木三丁目,国際興業（株）,常01,,,1,,,,139.67770479588904,35.774374678326254,東京都
花の木小学校,京成バス（株）,金01,,,1,,,,139.86492435739657,35.77434934240919,東京都
清瀬住宅入口,西武バス（株）,"清61-2,清61,清61-1",,,"1,1,1",,,,139.5296860889791,35.77429149787699,東京都
江北駅前,東京都,"東43,里48,里48-3,王49",,,"2,2,2,2",,,,139.77037433237513,35.77429207719967,東京都
四谷橋,西東京バス（株）,"深夜,小05",,,"1,1",,,,139.28249541517607,35.774275359477954,東京都
志村小学校,国際興業（株）,"赤56,赤56-3",,,"1,1",,,,139.68643875171918,35.7742624365107,東京都
二柳橋南,東村山市,久米川町循環,,,3,,,,139.47678579178964,35.77423081687218,東京都
おいせ坂上,板橋区,りんりんGO,,,3,,,,139.65557791719624,35.774205243823275,東京都
おいせ坂上,国際興業（株）,下赤03,,,1,,,,139.65557791719624,35.774205243823275,東京都
都営住宅入口,東武バスセントラル（株）,"北11,北12,五28",,,"1,1,1",,,,139.81443947352875,35.77420962663675,東京都
長久保,西武バス（株）,"荻15,泉35-4,泉34,泉33,泉37,【泉33】深夜,泉35-1,泉38,泉38-1,泉38-2,和40,泉39-3",,,"1,1,1,1,1,1,1,1,1,1,1,1",,,,139.5950273755306,35.77417631718955,東京都
長久保,練馬区,保谷ルート,,,3,,,,139.5950273755306,35.77417631718955,東京都
第二中学校北,清瀬市,"清瀬駅北口発清瀬駅南口行（志木街道経由）,清瀬駅南口発清瀬駅北口行（志木街道経由）",,,"3,3",,,,139.50540842650173,35.774155108917796,東京都
稲荷神社前（足立区）,東武バスセントラル（株）,綾21,,,1,,,,139.82990426307964,35.774163448863426,東京都
中央公園,清瀬市,"清瀬駅北口発清瀬駅南口行（志木街道経由）,清瀬駅南口発清瀬駅北口行（志木街道経由）",,,"3,3",,,,139.51082905352317,35.774146351224,東京都
志村一里塚,国際興業（株）,"池20/20-2,池21",,,"1,1",,,,139.69733565824947,35.77415106359716,東京都
二瀬橋東,東村山市,久米川町循環,,,3,,,,139.47506231898424,35.77414467707801,東京都
栄町一丁目西,羽村市,羽村中央コース,,,3,,,,139.30659478524058,35.774091524668435,東京都
西台三丁目,国際興業（株）,"東練05,東練80",,,"1,1",,,,139.66623557903716,35.77409494675425,東京都
陣屋,西東京バス（株）,奥12,,,1,,,,138.99838781545407,35.77404748403786,東京都
白岩滝,西東京バス（株）,"五21,五20",,,"1,1",,,,139.19886744785137,35.774038765402224,東京都
赤羽西四丁目,国際興業（株）,"赤50,赤51,赤52-2,赤53,赤80",,,"1,1,1,1,1",,,,139.71447176595922,35.77400960037225,東京都
江北駅,東武バスセントラル（株）,北05,,,1,,,,139.77080791743546,35.77399795750991,東京都
東金町四丁目,京成バス（株）,"金61,金63",,,"1,1",,,,139.87375353386633,35.773978151501154,東京都
東京女子医大足立医療センター前,東京都,"里48-2,里48-3",,,"2,2",,,,139.76554728000673,35.77395309569461,東京都
東京女子医大足立医療センター前＜旧上沼田第二都住＞,（株）新日本観光自動車,鹿02系統（はるかぜ6号）,,,1,,,,139.76554728000673,35.77395309569461,東京都
西長久保,西武バス（株）,"荻15,泉35-4,泉33,泉37,【泉33】深夜,泉35-1",,,"1,1,1,1,1,1",,,,139.5909014165444,35.773934773286854,東京都
西長久保,練馬区,保谷ルート,,,3,,,,139.5909014165444,35.773934773286854,東京都
秋津東小学校,西武バス（株）,"久11-2,久11-1,【久11-1】深夜",,,"1,1,1",,,,139.49044108749646,35.77392311410571,東京都
日野自動車北門（羽村市）,西東京バス（株）,"羽31,羽33",,,"1,1",,,,139.3154023873521,35.77386346612087,東京都
熊の木ポンプ東,（株）新日本観光自動車,椿04系統（はるかぜ11号）,,,1,,,,139.76144126316885,35.773864104320765,東京都
西台公園,国際興業（株）,赤01/01-2/85,,,1,,,,139.67382655656507,35.77381740981705,東京都
環七新田,東京都,"王41,王49,王55",,,"2,2,2",,,,139.7406159205949,35.773800401751686,東京都
谷中一丁目,朝日自動車（株）,"綾瀬駅〜六ツ木都住〜八潮駅南口,綾瀬駅〜六ツ木都住",,,"1,1",,,,139.8339939339072,35.7737752106932,東京都
